[{"name": "Prospect", "id": "5260da6a-3879-357c-b931-cc19214748ce", "coordinates": {"lat": 44.45, "lon": -63.7833}}, {"name": "St. Peters Bay", "id": "f77b9315-1e6e-3a7c-b0f9-fe9a71d77b2e", "coordinates": {"lat": 46.4333, "lon": -62.7333}}, {"name": "Port aux Basques *", "id": "8eb311eb-7121-374c-bc34-948de62edc49", "coordinates": {"lat": 47.5833, "lon": -59.15}}, {"name": "Flowers Cove", "id": "42a1eb81-f1cc-338f-9c69-108a1fa4debf", "coordinates": {"lat": 51.3, "lon": -56.7333}}, {"name": "Kugluktuk", "id": "e241cb6d-0bf5-3bec-a218-2f99b75829bd", "coordinates": {"lat": 67.8167, "lon": -115.0833}}, {"name": "Diligent River", "id": "9c842b2f-bdce-3b85-b9ab-0dcc880375d1", "coordinates": {"lat": 45.4, "lon": -64.4167}}, {"name": "Salmon River Bridge", "id": "6c3523f3-b5ee-3e03-b84c-dc3f33b32ca4", "coordinates": {"lat": 44.7667, "lon": -63.05}}, {"name": "Sunday Harbour", "id": "7a193991-2373-3414-9269-6bd512216ef8", "coordinates": {"lat": 50.7199, "lon": -126.7004}}, {"name": "Campbellton", "id": "eed1b313-ae6c-301f-8a3f-3b8ebbc13af3", "coordinates": {"lat": 48.0167, "lon": -66.6667}}, {"name": "Loon Islands", "id": "c073b933-28aa-3017-9595-250450a316ae", "coordinates": {"lat": 53.8167, "lon": -79.1667}}, {"name": "Harbour Breton", "id": "e81ac083-a92e-3894-baaa-1fd61f5eac7e", "coordinates": {"lat": 47.4667, "lon": -55.8}}, {"name": "Port Hastings", "id": "f4b5741a-70c3-399c-add8-2d860ebc57f8", "coordinates": {"lat": 45.65, "lon": -61.4}}, {"name": "Maple Bay", "id": "957df767-c92c-3a11-a903-1652a6a21120", "coordinates": {"lat": 48.8149, "lon": -123.6099}}, {"name": "Arisaig", "id": "c3c96642-e4b6-3d93-ba06-f71434d3ac12", "coordinates": {"lat": 45.7667, "lon": -62.1667}}, {"name": "Saint-Thomas-de-Kent", "id": "3dedb274-5b09-3926-a3bf-d4ab6a71fc87", "coordinates": {"lat": 46.45, "lon": -64.6333}}, {"name": "Bear Island (James Bay)", "id": "7657d3b5-0177-397c-80fd-8b5e8fe271b4", "coordinates": {"lat": 54.35, "lon": -81.0833}}, {"name": "St, Mary's Harbour", "id": "bf246580-8d06-31cc-824c-c82e8a15435b", "coordinates": {"lat": 46.9333, "lon": -53.5833}}, {"name": "Ecum Secum", "id": "1003bcbf-f745-3e2f-a4e6-761a66523cec", "coordinates": {"lat": 44.9667, "lon": -62.1333}}, {"name": "Geths\u00e9mani", "id": "d831864c-c627-3f3b-86cc-97d96b65ae89", "coordinates": {"lat": 50.2167, "lon": -60.6833}}, {"name": "Red Bay", "id": "3ec1a028-14d7-370d-969c-b5f32252b4c2", "coordinates": {"lat": 51.7167, "lon": -56.4167}}, {"name": "Rankin Inlet", "id": "088d685f-c744-3e4b-9e78-deb1a17bce24", "coordinates": {"lat": 62.8167, "lon": -92.0667}}, {"name": "St. Paul Island", "id": "0d9805d8-962d-30dd-a54e-916f751cdf10", "coordinates": {"lat": 47.2, "lon": -60.15}}, {"name": "Grande-Entr\u00e9e", "id": "9375cbdc-e4f2-3cf7-8692-3a8d6f0fdfed", "coordinates": {"lat": 47.55, "lon": -61.55}}, {"name": "Cape Chapman", "id": "7def212e-817e-3f50-b53f-89fa7f48b5ec", "coordinates": {"lat": 69.3, "lon": -89.25}}, {"name": "North Lake Harbour", "id": "968a68e8-0904-3abd-a60e-7f398f185c15", "coordinates": {"lat": 46.4667, "lon": -62.0667}}, {"name": "Kivitoo", "id": "83b0e9fb-c8f1-3101-9f5e-ecbd99ef8264", "coordinates": {"lat": 67.9333, "lon": -64.9333}}, {"name": "Upper Gagetown", "id": "5dbc80cb-04c4-3cfb-8673-e5b83f6a0818", "coordinates": {"lat": 45.85, "lon": -66.2333}}, {"name": "Montagu Point", "id": "9efbc7ec-0cb5-3060-9912-efebf530c4e9", "coordinates": {"lat": 50.6391, "lon": -126.213}}, {"name": "North Harbour", "id": "1406d8a2-719a-3a12-841d-2b45c2f04e54", "coordinates": {"lat": 47.85, "lon": -54.1}}, {"name": "Saint-Nicolas", "id": "196b793d-7fa0-37a0-9a72-6051c673ee78", "coordinates": {"lat": 46.712, "lon": -71.3788}}, {"name": "Winisk", "id": "7b041997-8c02-310e-8f3a-5d1f9d36d868", "coordinates": {"lat": 55.2833, "lon": -85.1}}, {"name": "Lewis Bay", "id": "a99c998c-c97e-3e60-8a74-f216b2404715", "coordinates": {"lat": 63.6, "lon": -68.0667}}, {"name": "Paradise River", "id": "503e35eb-0ae6-3352-9213-bf2b803f4b43", "coordinates": {"lat": 53.4333, "lon": -57.2833}}, {"name": "Pointe-Sapin", "id": "2dff99c0-e1ab-3294-bed1-b373c4072aeb", "coordinates": {"lat": 46.9833, "lon": -64.8167}}, {"name": "Prince Rupert *", "id": "1014cc83-253c-3200-a3cc-aeebcf5caa17", "coordinates": {"lat": -54.3174, "lon": 130.3241}}, {"name": "Tacks Beach", "id": "f75eeeb7-19b8-3086-a4eb-5842f3915e8a", "coordinates": {"lat": 47.5833, "lon": -54.2}}, {"name": "Troup Passage", "id": "73df9cf1-51fa-3110-843e-5162d1497a0f", "coordinates": {"lat": 52.242, "lon": -128.039}}, {"name": "Cape Dalhousie", "id": "ae525516-e6e2-3c88-9120-fd380d486c67", "coordinates": {"lat": 70.2667, "lon": -129.65}}, {"name": "Nugent Sound", "id": "6dae4cbb-a9d1-328b-9914-e8d0ea9f45e1", "coordinates": {"lat": 51.0842, "lon": -127.2547}}, {"name": "Pointe-au-P\u00e8re", "id": "0e3056cb-bca2-3995-8077-ed7ea35996e9", "coordinates": {"lat": 48.5167, "lon": -68.4667}}, {"name": "Canoe Cove", "id": "aef22193-99c5-3aab-a763-9fa1addad5d3", "coordinates": {"lat": 46.15, "lon": -63.3}}, {"name": "Anchor Point", "id": "b2517b27-e574-3bd5-8d74-875ed5ff726c", "coordinates": {"lat": 51.2333, "lon": -56.8}}, {"name": "Koluktoo Bay", "id": "868e625c-3c17-36fd-abdd-ebb8aedf188e", "coordinates": {"lat": 72.1065, "lon": -80.7443}}, {"name": "Fairehaven", "id": "66a7cebc-856b-3b8f-ae8e-65c17c4fdcbe", "coordinates": {"lat": 44.9667, "lon": -67.0167}}, {"name": "Pisiktarfik Island", "id": "29e0f2b5-d90d-32d6-9121-599287d3dae2", "coordinates": {"lat": 72.5763, "lon": -80.3527}}, {"name": "Houston Stewart Channel", "id": "0ea43e98-23f1-3b01-84d2-fd38de2ddfa7", "coordinates": {"lat": 52.0775, "lon": -131.125}}, {"name": "Stopper Islands", "id": "890ba264-8b64-34ab-869e-cc57a10feb01", "coordinates": {"lat": 48.993, "lon": -125.3463}}, {"name": "Stryker Island", "id": "4182efdd-a558-3544-90c6-9dbec2add91a", "coordinates": {"lat": 52.0925, "lon": -128.3475}}, {"name": "Matane", "id": "a21fef29-ae0d-3d3e-b8c7-9df10a409595", "coordinates": {"lat": 48.8402, "lon": -67.5775}}, {"name": "Bay of Woe", "id": "b208e1ed-8bed-37ec-84cf-c9153cbdde23", "coordinates": {"lat": 76.4167, "lon": -89.0667}}, {"name": "Quaqtaq", "id": "c5d1f5e5-cc26-3073-98ae-4d72006ccfe6", "coordinates": {"lat": 61.0333, "lon": -69.6333}}, {"name": "Woods Harbour ", "id": "122ae624-5b4c-3082-ade5-10f459c67972", "coordinates": {"lat": 43.5333, "lon": -65.7333}}, {"name": "Lock\u00b4s Cove", "id": "754f4139-bb24-3d5e-8887-4673066a4832", "coordinates": {"lat": 51.3333, "lon": -55.95}}, {"name": "Montmorency", "id": "c4c02ceb-ee0a-3ff7-a842-903737ca1585", "coordinates": {"lat": 46.8812, "lon": -71.1447}}, {"name": "Lower Wedgeport", "id": "e9f92729-2a2c-3ecf-aea4-197a485a3ff2", "coordinates": {"lat": 43.7167, "lon": -65.9833}}, {"name": "Narvaez Bay", "id": "bdf67717-a448-3a09-8b4b-7d276d224de0", "coordinates": {"lat": 48.7748, "lon": -123.0997}}, {"name": "Gold River", "id": "0cf2dabe-ca62-3b59-ab1e-174603e00da7", "coordinates": {"lat": 49.6785, "lon": -126.1258}}, {"name": "Vieux-Fort", "id": "e1156a7b-4b26-3cf6-96ed-ce800ac4da8c", "coordinates": {"lat": 51.4267, "lon": -57.8142}}, {"name": "Pearce Point", "id": "6a0e7ba7-42e3-3ff1-8f09-f1386ab0fadf", "coordinates": {"lat": 69.8167, "lon": -122.6667}}, {"name": "Hunger Harbour", "id": "dad71531-b80e-3e64-8ab5-0dfb70ff1e10", "coordinates": {"lat": 52.7658, "lon": -132.0467}}, {"name": "MacDonalds Point", "id": "c9dc4494-9acb-37dc-813a-b65c707d82ad", "coordinates": {"lat": 45.7167, "lon": -66.05}}, {"name": "Little Bay Arm", "id": "ab544b42-f8b0-3c2b-901e-95ef26abeee2", "coordinates": {"lat": 49.6, "lon": -55.9167}}, {"name": "Moosonee", "id": "de042bae-d9f3-305d-8cff-ca56545858a5", "coordinates": {"lat": 51.2833, "lon": -80.6333}}, {"name": "Dildo Run (Causeway)", "id": "25e83f95-aa6f-3b2a-b029-47706f73e2af", "coordinates": {"lat": 49.4833, "lon": -54.7333}}, {"name": "Hopewell Cape", "id": "f23b17a0-ebc4-35c9-b6b4-d801e07e556d", "coordinates": {"lat": 45.85, "lon": -64.5833}}, {"name": "Whale Cove", "id": "d514c4df-3b5b-3f77-a08b-bd19edc5b254", "coordinates": {"lat": 62.1667, "lon": -92.5667}}, {"name": "Frederick Sound", "id": "c80e165a-25e1-3256-b72d-84af787ce1b0", "coordinates": {"lat": 51.0403, "lon": -126.7336}}, {"name": "St. Stephen", "id": "589d1d38-dd27-3375-aa89-ca349572747f", "coordinates": {"lat": 45.2, "lon": -67.2833}}, {"name": "Ballantynes Cove", "id": "fa384043-ad08-3036-9a33-c99213a9d750", "coordinates": {"lat": 45.8667, "lon": -61.9167}}, {"name": "Pointe-aux-Cenelles", "id": "decea893-8c2d-3353-82d5-7ec31fdfe099", "coordinates": {"lat": 48.6428, "lon": -68.1667}}, {"name": "Kennedy Cove", "id": "28973a18-c1df-3bbe-9de3-59569bd071e3", "coordinates": {"lat": 49.1404, "lon": -125.6714}}, {"name": "Roggan River", "id": "6bfc47c6-8457-3c47-a684-2afe294a0f29", "coordinates": {"lat": 54.3833, "lon": -79.5}}, {"name": "Raynor Group", "id": "b419c8d3-6fae-3477-a2e6-0f76ebdbbe3c", "coordinates": {"lat": 50.8859, "lon": -127.2425}}, {"name": "Hunt Islets", "id": "e74f4bee-a590-3cdf-80ad-2afc7262f737", "coordinates": {"lat": 50.4742, "lon": -128.0303}}, {"name": "Mingan", "id": "047bd73e-6dd2-3f72-9ff2-4a45bcbbfb97", "coordinates": {"lat": 50.2892, "lon": -64.0202}}, {"name": "Port Harvey", "id": "fea94bb5-61be-3743-b6bf-8c18e3305518", "coordinates": {"lat": 50.5683, "lon": -126.2683}}, {"name": "Chemainus", "id": "c5eb50f4-8174-3998-acbb-73d58df46a2e", "coordinates": {"lat": 48.9258, "lon": -123.7144}}, {"name": "Anse-a-Beaufils", "id": "dddc7126-a81d-3ce1-bb81-1a34a98da36f", "coordinates": {"lat": 48.4717, "lon": -64.3083}}, {"name": "Silva Bay", "id": "bfd5be89-acc1-314b-9393-35fe6fb1e7d7", "coordinates": {"lat": 49.1497, "lon": -123.6988}}, {"name": "Corner Brook", "id": "3a2fb7bb-cded-3f70-a8f3-6cc7246ca399", "coordinates": {"lat": 48.95, "lon": -57.95}}, {"name": "Fourchu", "id": "b3eea48d-1a3c-3b28-97e3-7fe021c46a9d", "coordinates": {"lat": 45.7167, "lon": -60.25}}, {"name": "Pushthrough", "id": "d9071895-8e3e-38c0-90dd-d026ef73e5c9", "coordinates": {"lat": 47.6333, "lon": -56.1667}}, {"name": "Point Atkinson *", "id": "d2b74de6-de50-3957-bc8e-acf5e50566c9", "coordinates": {"lat": 49.3375, "lon": -123.2536}}, {"name": "Joggins", "id": "b0c43caf-7b9d-3b63-ab93-aed5b3e19f6f", "coordinates": {"lat": 45.6833, "lon": -64.4667}}, {"name": "Portsmouth", "id": "1556067e-6915-394d-948f-d2b6a1d6fe75", "coordinates": {"lat": 43.0833, "lon": -70.7333}}, {"name": "Effingham Bay", "id": "5405da26-0882-3b67-97df-52c9c5c26258", "coordinates": {"lat": 48.8777, "lon": -125.313}}, {"name": "Mackays Island", "id": "467b380b-fe4f-38c4-9563-d33401b59aec", "coordinates": {"lat": 58.2606, "lon": -68.2678}}, {"name": "Springdale", "id": "057b220e-4544-35cb-b8ba-cde7fd6fd2c4", "coordinates": {"lat": 49.4833, "lon": -56.05}}, {"name": "Grondines", "id": "6f54bff2-6b65-334c-a9dc-75cab0963f5f", "coordinates": {"lat": 46.5853, "lon": -72.0388}}, {"name": "Abrams River", "id": "675bd0c0-8410-3823-bc5a-7b08caaff94e", "coordinates": {"lat": 43.8333, "lon": -65.95}}, {"name": "Bridgeport", "id": "e846650f-0e0c-3941-a48c-4628af2c1ce6", "coordinates": {"lat": 49.55, "lon": -54.8833}}, {"name": "Georgina Point", "id": "b20bc841-d715-3d31-924d-e3ba9b5a2ae4", "coordinates": {"lat": 48.873, "lon": -123.2943}}, {"name": "Milne Island", "id": "1800b368-5520-327e-873c-ad648a203830", "coordinates": {"lat": 52.6088, "lon": -128.7694}}, {"name": "Paliak Islands", "id": "d5c8a31a-a096-37ef-9ad8-476301ce8039", "coordinates": {"lat": 65.3867, "lon": -89.0454}}, {"name": "Cambridge Narrows", "id": "6bd0c909-e8ec-3698-97f3-132f476f790f", "coordinates": {"lat": 45.8333, "lon": -65.95}}, {"name": "Cape Hooper", "id": "359955ed-7bf2-3c4b-ab40-4ad62f8f514c", "coordinates": {"lat": 68.3833, "lon": -66.75}}, {"name": "Spry Harbour", "id": "e8dce00e-1437-3344-b10e-25116d6d0f67", "coordinates": {"lat": 44.8333, "lon": -62.6167}}, {"name": "Bic", "id": "84724750-65ba-3ab2-a695-2a9d7b212180", "coordinates": {"lat": 48.3667, "lon": -68.7333}}, {"name": "Loggieville", "id": "b5adca81-b0c5-3818-87bf-191079a3514d", "coordinates": {"lat": 47.0667, "lon": -65.3833}}, {"name": "Blind Bay", "id": "78205ce9-6afd-3d48-9d4b-b64270be5bea", "coordinates": {"lat": 49.7215, "lon": -124.1792}}, {"name": "Cape Dorset", "id": "7df20cc7-17aa-3074-8bc5-bea71a88a7ab", "coordinates": {"lat": 64.2297, "lon": -76.495}}, {"name": "Hall Beach", "id": "b6c80d11-9afc-3fe5-a4bf-4312dc2a49bc", "coordinates": {"lat": 68.75, "lon": -81.2167}}, {"name": "House Harbour", "id": "7248a193-3cf0-32d0-8391-1f05a8787a92", "coordinates": {"lat": 56.2333, "lon": -61.05}}, {"name": "Qlawdzeet Anchorage", "id": "99955523-2ddc-3043-95f8-a29ab3440ef3", "coordinates": {"lat": 54.208, "lon": -130.7679}}, {"name": "Middle Cove", "id": "300de3ec-4bca-36e2-b327-1b00176c9a5e", "coordinates": {"lat": 47.6667, "lon": -52.7}}, {"name": "Baie-Trinite", "id": "12fec411-5346-3d80-bc8e-0be6b8b6b482", "coordinates": {"lat": 49.2873, "lon": -67.2842}}, {"name": "Ile d'Entr\u00e9e", "id": "43c29930-42e3-3356-a00d-1aa56d4bdf3f", "coordinates": {"lat": 47.2774, "lon": -61.7186}}, {"name": "Fort Albany", "id": "7d7fd26a-d701-34f0-969f-f44c09dbb8b2", "coordinates": {"lat": 52.1167, "lon": -81.3667}}, {"name": "North Kopak Island", "id": "145a50b9-afb8-36f9-b8af-d190ecf360dc", "coordinates": {"lat": 60.0, "lon": -77.75}}, {"name": "Sandwich Bay", "id": "8a94a788-fa44-3301-95f0-ebc02d08f76a", "coordinates": {"lat": 53.5667, "lon": -57.1667}}, {"name": "Saint-Ir\u00e9n\u00e9e", "id": "a9ca3ff5-bb5d-30d6-bd97-3a7a4d6dad6d", "coordinates": {"lat": 47.5588, "lon": -70.2018}}, {"name": "Moffatt Islands", "id": "4554cfa6-7d63-36cb-88fb-5a34542ee70e", "coordinates": {"lat": 54.446, "lon": -130.726}}, {"name": "Exploits Upper Harbour", "id": "56776ffc-f0cf-3530-bbd6-99ac06b8c4ba", "coordinates": {"lat": 49.5167, "lon": -55.0667}}, {"name": "Port Bowen", "id": "289b85cb-bd8b-311a-8673-3cc160570189", "coordinates": {"lat": 73.2833, "lon": -89.05}}, {"name": "Bay du Vin", "id": "12c44786-4885-3d14-9455-f2e2175932d3", "coordinates": {"lat": 47.05, "lon": -65.1667}}, {"name": "Victoria", "id": "9fc22255-70e9-33de-b09b-cbe451fb1486", "coordinates": {"lat": 46.2167, "lon": -63.5}}, {"name": "Burnt Church", "id": "26a13afa-ee35-3177-86c4-e561d117cc17", "coordinates": {"lat": 47.2, "lon": -65.1333}}, {"name": "Kwatsi Bay", "id": "e56049a1-38ed-3ffc-84bc-7cf002048539", "coordinates": {"lat": 50.8647, "lon": -126.2494}}, {"name": "Lac aux Feuilles", "id": "2eb9c731-dc51-30ed-93a0-7dd3402e91dd", "coordinates": {"lat": 58.7333, "lon": -69.8333}}, {"name": "Panorama Island", "id": "0e35dd86-7915-3727-a79f-f443d2a3e501", "coordinates": {"lat": 62.7912, "lon": -92.0944}}, {"name": "Long Beach", "id": "bd89af82-7ac0-3e69-ac66-1f50328ed6f3", "coordinates": {"lat": 47.9833, "lon": -53.8}}, {"name": "Pedder Bay", "id": "366fd1d8-eda3-322b-b884-aa1d1e22a24e", "coordinates": {"lat": 48.332, "lon": -123.5502}}, {"name": "Hebron", "id": "48d0cab2-b92d-3ac5-9f3c-d6bbbbe2d5da", "coordinates": {"lat": 58.1833, "lon": -62.6167}}, {"name": "Middle Bay", "id": "9c5d194c-32ba-3853-8054-0837db26f8a3", "coordinates": {"lat": 51.7667, "lon": -57.8167}}, {"name": "Malagash", "id": "7f006139-a7e6-34c9-a162-7016b1b7e874", "coordinates": {"lat": 45.7833, "lon": -63.2833}}, {"name": "Channel Island", "id": "c73f4c6a-b4cf-3401-9d68-e5d6aa1bef07", "coordinates": {"lat": 50.3212, "lon": -124.7419}}, {"name": "Barnard Harbour", "id": "01adcc85-5b96-32d1-a59d-194badd49da5", "coordinates": {"lat": 53.0735, "lon": -129.1171}}, {"name": "Hermitage", "id": "1e103125-176c-3e52-9fd8-fbd46c98a0cb", "coordinates": {"lat": 47.5667, "lon": -55.9333}}, {"name": "Lund", "id": "ac8d981f-351c-359d-a1f6-5a861a81df31", "coordinates": {"lat": 49.9811, "lon": -124.762}}, {"name": "West Narrows", "id": "815d4713-325f-3d11-a3ca-676bc4bfa252", "coordinates": {"lat": 44.4, "lon": -66.2167}}, {"name": "Valleyfield", "id": "ed72aad8-7792-3236-81ad-4442956b9478", "coordinates": {"lat": 49.1667, "lon": -53.6167}}, {"name": "Adams Harbour", "id": "bb7e4640-d567-3754-9dcf-4efbd2d56cbc", "coordinates": {"lat": 51.6898, "lon": -128.1064}}, {"name": "Langara Point", "id": "44cc312e-a8bd-3c91-8b9f-a3c39938a1e0", "coordinates": {"lat": 54.2557, "lon": -133.0448}}, {"name": "Cap d\u00b4Espoir", "id": "dcb81ca5-bba1-37e9-a0c6-9a5edfe5c5ed", "coordinates": {"lat": 48.4167, "lon": -64.3333}}, {"name": "Dionisio Point", "id": "1ee73bc5-8f2f-3d82-920f-2425f0ab20de", "coordinates": {"lat": 49.0135, "lon": -123.5734}}, {"name": "Wood Islands *", "id": "b1389248-1e48-3416-ba25-6849c0942a84", "coordinates": {"lat": 45.95, "lon": -62.75}}, {"name": "Matthews Cove", "id": "d5b00331-c4c6-32a6-ab43-bf7b995e7f7e", "coordinates": {"lat": 45.05, "lon": -66.8667}}, {"name": "Leroy Bay", "id": "8d0d5fa6-b675-3ea5-9a4b-e683c6127352", "coordinates": {"lat": 51.2728, "lon": -127.6636}}, {"name": "Dawson Harbour", "id": "caf5b57f-a1e8-33da-a983-fd22d12396e0", "coordinates": {"lat": 53.163, "lon": -132.459}}, {"name": "Marie Joseph", "id": "78a50d4d-1be0-32aa-994b-00cfee493532", "coordinates": {"lat": 44.9667, "lon": -62.0833}}, {"name": "Hamilton Island", "id": "39ae2bce-e6ad-38bf-88fb-10b2e9504bd8", "coordinates": {"lat": 74.2, "lon": -99.1667}}, {"name": "Juskatla", "id": "8fc3074d-b869-3d0d-9d92-ba0cff569107", "coordinates": {"lat": 53.6283, "lon": -132.3189}}, {"name": "Turnavik Island", "id": "cd8766de-605f-37d6-96a0-c1e0cae9eb97", "coordinates": {"lat": 55.2833, "lon": -59.3333}}, {"name": "Mostyn Cove", "id": "02f056ec-9668-30d1-9498-4183b857bd22", "coordinates": {"lat": 54.75, "lon": -57.9833}}, {"name": "McCoy Cove", "id": "73a3f8d5-e400-3d4f-a0d8-5278d828ebfd", "coordinates": {"lat": 53.0414, "lon": -131.6644}}, {"name": "Riley Cove", "id": "7c95b45b-e87e-3c0d-bdde-01cb926f2b30", "coordinates": {"lat": 49.3908, "lon": -126.2255}}, {"name": "Gull Island", "id": "d14a1d02-0d2d-340c-b8b5-5fe5da90d136", "coordinates": {"lat": 47.2667, "lon": -52.7833}}, {"name": "Walker Group", "id": "3d5e84aa-5546-398b-a9a5-7d75b281e0e8", "coordinates": {"lat": 50.8987, "lon": -127.5257}}, {"name": "Rivi\u00e8re-au-Tonnerre", "id": "d5376255-97ed-3916-8576-c07d27be32df", "coordinates": {"lat": 50.2733, "lon": -64.761}}, {"name": "Flat Island", "id": "86c5a018-91ce-37a2-b794-cfcc72a4f362", "coordinates": {"lat": 43.5, "lon": -66.0}}, {"name": "Cape Parry", "id": "722a5508-a334-350e-a28a-43c6a03fe281", "coordinates": {"lat": 70.15, "lon": -124.6667}}, {"name": "St. Bride\u00b4s", "id": "3dcd8b5f-2de3-358c-874c-55b6ca5e39c9", "coordinates": {"lat": 46.9167, "lon": -54.1833}}, {"name": "Wrangel Bay", "id": "9d386890-3994-3457-92f4-da44a747249f", "coordinates": {"lat": 82.0, "lon": -62.5}}, {"name": "Norton Island", "id": "1aacc67f-a9bb-3cd2-b89b-5c1b2b457eee", "coordinates": {"lat": 64.0, "lon": -94.2167}}, {"name": "Chenal de l'\u00eele Verte", "id": "95a7a589-ff1b-37e1-b775-7d1babd433b4", "coordinates": {"lat": 48.0247, "lon": -69.408}}, {"name": "Isaacs Harbour", "id": "0a7e2377-9ac1-3d30-a9b2-4e20c5e20ce0", "coordinates": {"lat": 45.1833, "lon": -61.6667}}, {"name": "Outer Wood Island", "id": "0c70619b-d019-348c-99a2-b171e1faa10e", "coordinates": {"lat": 44.6, "lon": -66.8}}, {"name": "Isle aux Morts", "id": "30c27f89-d684-3536-9866-11cb71839486", "coordinates": {"lat": 47.5667, "lon": -58.9667}}, {"name": "Cape Cliff", "id": "3f1b3fa8-b81a-3af2-b5e4-468c6fb21fa8", "coordinates": {"lat": 45.8833, "lon": -63.4667}}, {"name": "Wadhams", "id": "158e429b-cf12-3534-ba0e-14d16628eff7", "coordinates": {"lat": 51.5097, "lon": -127.5238}}, {"name": "Henslung Cove", "id": "a6ef9598-859b-3090-93a0-5eaf61383a48", "coordinates": {"lat": 54.1917, "lon": -133.0042}}, {"name": "GASP\u00c9 (SANDY BEACH)", "id": "17366251-12ef-336c-834f-6e9e643857f9", "coordinates": {"lat": 48.826, "lon": -64.4407}}, {"name": "Owls Head", "id": "374adbab-3a9e-3fab-8556-e5a3af9340f3", "coordinates": {"lat": 44.5833, "lon": -63.9167}}, {"name": "Indian Harbour", "id": "e8f31023-8df3-315d-b448-d914232d5f84", "coordinates": {"lat": 44.5167, "lon": -63.9333}}, {"name": "Margaretsville", "id": "0ddf5cf2-b130-346d-911a-b305a59686cf", "coordinates": {"lat": 45.05, "lon": -65.0667}}, {"name": "Woody Island", "id": "58de8ac3-4b6c-3b27-859c-cc6358bcbc2c", "coordinates": {"lat": 47.7833, "lon": -54.1667}}, {"name": "Kitsilano", "id": "789e7a71-243c-346e-a4c8-915e71a870f0", "coordinates": {"lat": 49.2766, "lon": -123.1394}}, {"name": "Cloridorme", "id": "61897c99-f976-38bf-9b8e-71f0b70caacc", "coordinates": {"lat": 49.1833, "lon": -64.8333}}, {"name": "Pasp\u00e9biac", "id": "0fc6b47a-732e-3a3d-91eb-ad33bca04c69", "coordinates": {"lat": 48.018, "lon": -65.257}}, {"name": "Alice Arm", "id": "66ed32ff-fcf7-399a-b680-11cdd1a1ff41", "coordinates": {"lat": 55.47, "lon": -129.496}}, {"name": "Baie-du-Renard", "id": "edc6d24e-f61c-3437-a567-a5ffee5694fe", "coordinates": {"lat": 49.2667, "lon": -61.8333}}, {"name": "Dark Cove, Dildo Run", "id": "9fe1dce9-aa1b-3d23-8815-65688f6a5a91", "coordinates": {"lat": 49.5333, "lon": -54.75}}, {"name": "Lawyer Islands", "id": "b13097c8-2fbf-3b0b-8138-c6494b9968c3", "coordinates": {"lat": 54.1048, "lon": -130.3341}}, {"name": "Chesterfield Inlet", "id": "29808e8d-ceb2-3a66-91fa-922ca597d11c", "coordinates": {"lat": 63.3333, "lon": -90.6833}}, {"name": "Gladman Point", "id": "f0dff9d3-2cdd-347a-9c69-c7c4ff718cc0", "coordinates": {"lat": 68.655, "lon": -97.74}}, {"name": "Kay point", "id": "31a5c5e8-d44d-3c8a-b369-00d4021055fe", "coordinates": {"lat": 69.2833, "lon": -138.4333}}, {"name": "Gannet Rock", "id": "bd93a856-1101-307b-8a73-9e0b04fbb9ec", "coordinates": {"lat": 44.5167, "lon": -66.7833}}, {"name": "Tukarak Island", "id": "9023907b-5f7f-36ad-a4a6-82fd6818ef20", "coordinates": {"lat": 56.3167, "lon": -78.8333}}, {"name": "Jordans Point", "id": "8ca99163-e8ba-3f80-aac6-c8611de84963", "coordinates": {"lat": 54.2167, "lon": -58.2333}}, {"name": "Sand Heads", "id": "9ed1f40a-00dd-3ced-b8c0-95cec98d3a1b", "coordinates": {"lat": 49.1, "lon": -123.3}}, {"name": "Baie de Brador", "id": "1d1fa096-435d-3ab2-8823-709482adc5c7", "coordinates": {"lat": 51.4667, "lon": -57.2667}}, {"name": "Broad Cove", "id": "4b76b37b-a4a0-32b2-843b-9c9475c8e158", "coordinates": {"lat": 44.6667, "lon": -65.8333}}, {"name": "Kelley's Cove", "id": "5758c1e2-70ca-3c06-b4bc-e4001d8b3c53", "coordinates": {"lat": 43.7833, "lon": -66.1333}}, {"name": "Seal Island", "id": "759f8380-fc20-3d2f-9952-513bafe37468", "coordinates": {"lat": 43.4833, "lon": -66.0}}, {"name": "Port Nelson", "id": "23dc0329-8045-3a5b-92fe-83e551bfcae3", "coordinates": {"lat": 57.0, "lon": -92.5}}, {"name": "St.Alban\u00b4s", "id": "3dac5dd2-2de0-3ee2-8624-0ac7b8aed651", "coordinates": {"lat": 47.8667, "lon": -55.8333}}, {"name": "Caravalla Cove", "id": "c7246928-080b-3f7f-be6b-e392a0e60b81", "coordinates": {"lat": 54.05, "lon": -58.5833}}, {"name": "Spencers Island", "id": "c6c29323-35c8-3556-92f7-21790446ae51", "coordinates": {"lat": 45.35, "lon": -64.7167}}, {"name": "Batiscan *", "id": "c4b32842-7015-30a1-8a6f-d9275e8cd210", "coordinates": {"lat": 46.5003, "lon": -72.2458}}, {"name": "Cap-aux-Meules *", "id": "6a631ed6-b5a0-367e-9fd6-2308661c605c", "coordinates": {"lat": 47.3789, "lon": -61.8573}}, {"name": "Peel Point", "id": "f30d951f-27f4-3921-a631-fcf7615e5906", "coordinates": {"lat": 73.2667, "lon": -115.1833}}, {"name": "Seldom Come By", "id": "8649c95f-cc56-3225-9bc3-412b7fcecd01", "coordinates": {"lat": 49.6167, "lon": -54.1833}}, {"name": "Bella Bella *", "id": "e26bc558-c7dd-34b0-bf7e-babd64051bf4", "coordinates": {"lat": 52.1626, "lon": -128.1428}}, {"name": "Cow Head", "id": "d7b11d0a-004e-3590-8e95-65989ceffb19", "coordinates": {"lat": 49.4333, "lon": -57.8}}, {"name": "East Quoddy Head", "id": "93ff500f-400e-3af3-8dc9-7c594df4d3fb", "coordinates": {"lat": 44.9667, "lon": -66.9}}, {"name": "Cape Augherston", "id": "444d7ff3-9e30-35e6-b615-fd6f878b19b8", "coordinates": {"lat": 70.4833, "lon": -93.2833}}, {"name": "Belleoram", "id": "aea1765b-f762-3fc3-89c6-b44187307481", "coordinates": {"lat": 47.5333, "lon": -55.4167}}, {"name": "Cordero Islands", "id": "7f71cf7f-5b3b-3914-96ac-3154cbd2ce91", "coordinates": {"lat": 50.4424, "lon": -125.4919}}, {"name": "Eureka", "id": "3c866b3a-730b-3103-9a80-9c6b6e3edb81", "coordinates": {"lat": 79.9851, "lon": -85.909}}, {"name": "Long Island", "id": "1824a0cb-cced-3bf5-a7cd-d7b3d6919c21", "coordinates": {"lat": 45.15, "lon": -66.9667}}, {"name": "Griffin Passage", "id": "03d31c75-1120-3331-b181-8613aed29abc", "coordinates": {"lat": 52.77, "lon": -128.346}}, {"name": "Port-Menier", "id": "bf810743-5a50-31b8-9f5a-b01b48a89eb8", "coordinates": {"lat": 49.8167, "lon": -64.3667}}, {"name": "Great St, Lawrence *", "id": "533c8e52-f0d7-39b3-93e3-dbaa6759631e", "coordinates": {"lat": 46.9, "lon": -55.3667}}, {"name": "Heart\u00b4s Content", "id": "05e7c552-f354-3bf3-8a5d-ec6225855a6e", "coordinates": {"lat": 47.8667, "lon": -53.3667}}, {"name": "Scots Bay", "id": "7110789d-f440-3f22-a283-088b5d35ca85", "coordinates": {"lat": 45.3167, "lon": -64.4333}}, {"name": "Igloolik", "id": "1a659e38-e2e6-3065-aec8-9643d4465720", "coordinates": {"lat": 69.3667, "lon": -81.7667}}, {"name": "Holyrood ", "id": "6bd027ac-56bc-3248-b5a0-9d568b3cd1d4", "coordinates": {"lat": 47.35, "lon": -53.1167}}, {"name": "Souris", "id": "8a61701d-765f-3484-89a7-42bdf2bd3886", "coordinates": {"lat": 46.35, "lon": -62.25}}, {"name": "St. John\u00b4s *", "id": "5199f2cf-5ce2-3b11-9088-c2574a46735c", "coordinates": {"lat": 47.5667, "lon": -52.7}}, {"name": "Montague Harbour", "id": "945de521-03df-3254-a8e9-f41614acb19b", "coordinates": {"lat": 48.8901, "lon": -123.3877}}, {"name": "Innetalling Island", "id": "17f6aac2-c6ab-33dd-8885-747a14dbff1d", "coordinates": {"lat": 55.9, "lon": -79.0667}}, {"name": "Saint-Bernard-Ile-aux-Coudres", "id": "040306cc-70fd-3942-9325-e62b5ad41482", "coordinates": {"lat": 47.4205, "lon": -70.3922}}, {"name": "Esquimalt", "id": "0bd122c7-e223-3a6a-a1ef-00e31fce8b87", "coordinates": {"lat": 48.4356, "lon": -123.4278}}, {"name": "B\u00e9langer Island", "id": "d307cfec-ce4e-3fc0-901f-66485435e26d", "coordinates": {"lat": 56.1333, "lon": -76.7167}}, {"name": "Dover-Wellington", "id": "17f28c8f-5f07-31ba-a877-5ac04a4aef78", "coordinates": {"lat": 0.0, "lon": 0.0}}, {"name": "Brundige Inlet", "id": "469912e9-12d7-34ba-9922-0fbb18d6f8c4", "coordinates": {"lat": 54.6144, "lon": -130.8518}}, {"name": "Kyuquot", "id": "46e606ba-9b3b-33d4-bfb0-9a992745ac4e", "coordinates": {"lat": 50.0265, "lon": -127.3758}}, {"name": "Neguac", "id": "a254f096-12b4-3ffa-a595-34ee78313d63", "coordinates": {"lat": 47.25, "lon": -65.0833}}, {"name": "Nevile Island", "id": "5ee646e6-68c3-30fd-a371-4f99943e7754", "coordinates": {"lat": 52.55, "lon": -56.1167}}, {"name": "Oak Bay", "id": "1e563dd7-f267-38ef-b04b-480dddd1aed4", "coordinates": {"lat": 48.4237, "lon": -123.3026}}, {"name": "Pictou", "id": "10a6a837-7a1b-34d7-85c3-c232b885afbe", "coordinates": {"lat": 45.6833, "lon": -62.7}}, {"name": "Isle Haute", "id": "70da72cf-3f1b-374d-a911-e3beb15af888", "coordinates": {"lat": 45.25, "lon": -64.9667}}, {"name": "Lunenburg", "id": "4b599f63-f1f9-3b60-92ae-84229d609527", "coordinates": {"lat": 44.3667, "lon": -64.3167}}, {"name": "Five Islands", "id": "13135e4e-1afc-3a4d-a374-b9494733fe8d", "coordinates": {"lat": 45.3833, "lon": -64.0667}}, {"name": "Trepassey", "id": "55bcb431-3f7d-38e7-a428-c36dfda7505f", "coordinates": {"lat": 46.7333, "lon": -53.3667}}, {"name": "La Tabati\u00e8re", "id": "5268934e-ab18-3def-8ec5-0bd36c43ff6a", "coordinates": {"lat": 50.8382, "lon": -58.9765}}, {"name": "McKenney Islands", "id": "d33365e1-c5fe-3b09-8065-76986627d26a", "coordinates": {"lat": 52.6503, "lon": -129.4719}}, {"name": "St. Martins", "id": "cd815615-93bc-384f-87be-6d45524a0124", "coordinates": {"lat": 45.35, "lon": -65.5333}}, {"name": "Aulds Cove", "id": "bec367fd-610f-35aa-9571-5720d45badfc", "coordinates": {"lat": 45.65, "lon": -61.4333}}, {"name": "Prideaux Haven", "id": "cbd2f6d1-d263-38f4-a566-947479e71707", "coordinates": {"lat": 50.1443, "lon": -124.6757}}, {"name": "Ship Sands Island", "id": "548beb8a-abd1-3866-b5b7-5f87205e0946", "coordinates": {"lat": 51.3333, "lon": -80.4333}}, {"name": "Naufrage", "id": "def8a398-dd22-3f0a-8204-61a43d8bb337", "coordinates": {"lat": 46.4667, "lon": -62.4167}}, {"name": "Gordon Point", "id": "30d3f3c9-c3ed-362b-ae0e-9b1d2b186fde", "coordinates": {"lat": 47.0833, "lon": -65.4}}, {"name": "Bunker I, Wharf", "id": "12c52f85-c089-38a0-ae69-198a2b5b27bb", "coordinates": {"lat": 43.8167, "lon": -66.1333}}, {"name": "Port-Daniel", "id": "b1bf96f6-841f-37c9-a5af-9a16183953aa", "coordinates": {"lat": 48.1827, "lon": -64.9613}}, {"name": "Sheringham Point", "id": "6a2621f2-9cb9-3500-8d3e-40a725bf30ec", "coordinates": {"lat": 48.375, "lon": -123.9183}}, {"name": "Neil's Harbour", "id": "0308216f-d142-3f03-be9e-ffdc7f414efd", "coordinates": {"lat": 46.8, "lon": -60.3167}}, {"name": "Ellerslie", "id": "1445e929-9f22-3e68-bea5-4a5984f33417", "coordinates": {"lat": 46.65, "lon": -63.9167}}, {"name": "Leslie", "id": "a288530f-d923-3db9-b57b-a0e3be7fc631", "coordinates": {"lat": 47.6283, "lon": -61.515}}, {"name": "Forit Bay", "id": "d36c4937-d425-32ec-8eb7-d5bae3cbfd9a", "coordinates": {"lat": 52.1736, "lon": -127.9095}}, {"name": "Cape Jack", "id": "a0545da0-95ae-3030-af10-114f223712e3", "coordinates": {"lat": 45.7, "lon": -61.55}}, {"name": "Ile aux Li\u00e8vres", "id": "b8493811-2124-3514-abab-b57f32f247ed", "coordinates": {"lat": 47.8, "lon": -69.7667}}, {"name": "Botwood", "id": "4174ec48-0735-31aa-86d4-e3e2982ffafd", "coordinates": {"lat": 49.1333, "lon": -55.3333}}, {"name": "Krubluyak Point", "id": "9044a1cc-fcc4-371e-ac00-a0781a23edae", "coordinates": {"lat": 69.5333, "lon": -130.9333}}, {"name": "Chatham Point", "id": "9a21120d-47b2-3126-94fd-b9876eb6123b", "coordinates": {"lat": 50.3315, "lon": -125.4421}}, {"name": "Discovery Harbour", "id": "4399389c-2089-3982-a1f0-df4b6bb553c1", "coordinates": {"lat": 81.7333, "lon": -64.7333}}, {"name": "Welshpool", "id": "78ad4f4f-94cb-39b5-b426-115d1b02f508", "coordinates": {"lat": 44.8833, "lon": -66.95}}, {"name": "Harbour Grace", "id": "c2013b4d-1fe5-3682-9efe-69bab812537e", "coordinates": {"lat": 47.6833, "lon": -53.2167}}, {"name": "Grand Eddy", "id": "6fa760e4-0cf8-3ae8-9a9f-9bbbf5dee281", "coordinates": {"lat": 44.4, "lon": -66.2}}, {"name": "Makkovik", "id": "8a7cfdd0-0c49-3688-852d-48ff58e27b92", "coordinates": {"lat": 55.0833, "lon": -59.1667}}, {"name": "Ladysmith", "id": "d399b420-ab17-3e57-accf-e8cd14904dd8", "coordinates": {"lat": 48.998, "lon": -123.817}}, {"name": "Swims Point ", "id": "6af95a48-f287-3821-a4d5-b1eb661bf71e", "coordinates": {"lat": 43.4333, "lon": -65.6333}}, {"name": "West Head", "id": "becb1284-d5ff-3b73-9126-64c05013e85f", "coordinates": {"lat": 43.4667, "lon": -65.65}}, {"name": "Hartley Bay", "id": "5db7118b-7706-3ce6-9070-c5720b5d1109", "coordinates": {"lat": 53.4242, "lon": -129.2519}}, {"name": "Hopes Advance Bay", "id": "161d4b89-e272-3800-8c95-868adf2b41ac", "coordinates": {"lat": 59.35, "lon": -69.6333}}, {"name": "Skinner's Pond", "id": "4d4e9cb2-07f7-36f2-b719-8d53ebf6a456", "coordinates": {"lat": 46.95, "lon": -64.1167}}, {"name": "Dundas Harbour", "id": "a6360072-3987-3bbe-b2dc-59330716522d", "coordinates": {"lat": 74.5167, "lon": -82.4167}}, {"name": "Sheet Harbour", "id": "833e0f35-a945-3515-be23-d7b3e864fb86", "coordinates": {"lat": 44.9167, "lon": -62.5333}}, {"name": "Dingwall", "id": "2228b3b3-26b2-33d2-9744-1c8f77c0145e", "coordinates": {"lat": 46.9, "lon": -60.4667}}, {"name": "Ile Pikiyulik", "id": "69732bb2-d9a2-38aa-8a4f-10b477dfd131", "coordinates": {"lat": 60.0, "lon": -69.9167}}, {"name": "Musquash Harbour", "id": "8767160e-4d62-37b7-b2fb-b32c4bb3be0c", "coordinates": {"lat": 45.15, "lon": -66.25}}, {"name": "\u00c9tang-de-l'Ouest", "id": "1a8aaa52-2372-35a1-bcac-1777bd6a1d30", "coordinates": {"lat": 47.25, "lon": -62.0167}}, {"name": "Coal Harbour", "id": "3bf95adc-65cc-3a31-b723-3598e4b9c80c", "coordinates": {"lat": 50.5986, "lon": -127.5808}}, {"name": "Gasp\u00e9", "id": "b8246279-335d-3d62-8956-88c0f702a6cc", "coordinates": {"lat": 48.8333, "lon": -64.4833}}, {"name": "Atkinson Point", "id": "7cfda934-a8cf-3de3-b5cf-9edfbf772dcb", "coordinates": {"lat": 69.95, "lon": -131.4167}}, {"name": "Bonavista *", "id": "85d37e57-b592-3cab-9a77-cb64b23abb6d", "coordinates": {"lat": 49.0833, "lon": -53.2}}, {"name": "Patricia Bay *", "id": "0d0b6359-daa6-3e93-9ea0-fbec56e9f3ab", "coordinates": {"lat": 48.6536, "lon": -123.4517}}, {"name": "Port Saunders", "id": "8074970e-80c7-3c88-a809-0cab67d17810", "coordinates": {"lat": 50.65, "lon": -57.3}}, {"name": "Jackos Point", "id": "a248d723-ba2e-364c-9f3a-07ba7fb4b857", "coordinates": {"lat": 59.45, "lon": -55.1167}}, {"name": "Bernard Harbour", "id": "db145882-0e80-3938-bd5c-197dc9347178", "coordinates": {"lat": 68.7833, "lon": -114.7333}}, {"name": "Smithers Island", "id": "0f84b4a9-02c3-3fad-b53f-ce6f9b4604ab", "coordinates": {"lat": 52.7575, "lon": -129.0728}}, {"name": "Sandy Point", "id": "8d779176-e630-3568-89c7-48ecf8337b21", "coordinates": {"lat": 43.7, "lon": -65.3333}}, {"name": "Portugal Cove", "id": "448265ab-94eb-300a-a60d-b17bb03f3221", "coordinates": {"lat": 47.6167, "lon": -52.8667}}, {"name": "Digby", "id": "78287baa-2497-378a-b392-410118185e8e", "coordinates": {"lat": 44.6333, "lon": -65.75}}, {"name": "Block Islands", "id": "0b74be18-b109-32ed-961d-2a28ebd28918", "coordinates": {"lat": 53.1567, "lon": -129.7392}}, {"name": "Egeria Bay", "id": "199ccc52-3ffe-309b-a25c-3f7ab58c3700", "coordinates": {"lat": 54.2245, "lon": -132.9642}}, {"name": "Havre-Saint-Pierre", "id": "e0974748-f759-31ce-8333-44f8a578c7eb", "coordinates": {"lat": 50.2333, "lon": -63.6167}}, {"name": "Port Edward", "id": "7101b148-ac0c-3d45-9473-20f6394bbe9e", "coordinates": {"lat": 54.2289, "lon": -130.2956}}, {"name": "McMaster Island", "id": "f5360ac3-94ee-3ba6-afd1-bbd978b6fe0c", "coordinates": {"lat": 45.05, "lon": -66.9333}}, {"name": "T\u00eate-\u00e0-la-Baleine", "id": "8d12a990-78a4-3349-8368-9b6855ba1841", "coordinates": {"lat": 50.68, "lon": -59.24}}, {"name": "Saint-Fran\u00e7ois I.O. *", "id": "52625f8a-3732-3f29-bd25-85de1a06e356", "coordinates": {"lat": 46.9965, "lon": -70.8082}}, {"name": "Franklin Bay", "id": "29619c14-720b-37c3-bd77-78fcd7491a3b", "coordinates": {"lat": 69.95, "lon": -126.9167}}, {"name": "Salvage", "id": "aed2951a-100b-3241-b947-d631f4660d20", "coordinates": {"lat": 48.6833, "lon": -53.6333}}, {"name": "Portage Island", "id": "f3605f3b-5264-3a1d-88df-0084b0864175", "coordinates": {"lat": 47.1667, "lon": -65.05}}, {"name": "Tusket", "id": "7e6e665d-042f-348d-a740-24d82b4ffe81", "coordinates": {"lat": 43.85, "lon": -65.9833}}, {"name": "Jennis Bay ", "id": "cb1d7a26-e767-393a-b22b-c3d04aa4da59", "coordinates": {"lat": 50.913, "lon": -127.026}}, {"name": "Cabot Point", "id": "b2f20955-b87d-3b0d-ac56-410273b34282", "coordinates": {"lat": 53.7167, "lon": -59.0333}}, {"name": "Sainte-Anne-des-Monts", "id": "7d0c5221-44e8-3ff3-97cf-c34b0c391d13", "coordinates": {"lat": 49.134, "lon": -66.4858}}, {"name": "Castle Island", "id": "673aaaf2-27fe-3305-8133-95718970091a", "coordinates": {"lat": 51.9667, "lon": -55.85}}, {"name": "Anse-\u00e0-Valleau", "id": "ca1124ca-8b6c-3101-bfa1-6cc82961d4bc", "coordinates": {"lat": 49.0833, "lon": -64.5333}}, {"name": "L\u00b4Islet-sur-Mer", "id": "a9a57cd8-29dd-3023-8b57-986303cbc11c", "coordinates": {"lat": 47.136, "lon": -70.3732}}, {"name": "Addenbroke Island", "id": "f0b2f3c3-3b91-31cd-b222-d6e75836b0ed", "coordinates": {"lat": 51.6044, "lon": -127.8265}}, {"name": "Seal Cove", "id": "9ccf1a04-3df8-3f5a-be82-9eccb68c2750", "coordinates": {"lat": 49.4333, "lon": -56.3667}}, {"name": "Escuminac *", "id": "129bcb58-a15b-37b7-9661-765f308bb3d7", "coordinates": {"lat": 47.0833, "lon": -64.8833}}, {"name": "Atli Inlet", "id": "4c5ab58e-d7c9-39c3-9d85-e751302a19a1", "coordinates": {"lat": 52.7133, "lon": -131.5767}}, {"name": "Charlottetown", "id": "59b126a9-2af0-39f9-a758-2bab1bcdf055", "coordinates": {"lat": 48.4333, "lon": -54.0167}}, {"name": "Sulphur Passage", "id": "139c2df2-b950-3cae-a239-0a04ef8f6c7c", "coordinates": {"lat": 49.4043, "lon": -126.068}}, {"name": "Belledune *", "id": "a0a7e051-9d0e-38d1-b323-418293e3d416", "coordinates": {"lat": 47.9, "lon": -65.85}}, {"name": "Pointe-aux-Orignaux", "id": "9b27b7da-05a3-36f2-8c94-d5e6b8de39cc", "coordinates": {"lat": 47.487, "lon": -70.0258}}, {"name": "Doctor Island", "id": "f6d3aa44-a190-3833-9597-8246a00e45bf", "coordinates": {"lat": 61.6833, "lon": -71.5667}}, {"name": "Gibsons", "id": "ff64a071-5947-3bf8-a78f-05c50ed1ae96", "coordinates": {"lat": 49.4016, "lon": -123.505}}, {"name": "Martin Islands", "id": "2a42400c-b197-331a-b845-e2602ed963ab", "coordinates": {"lat": 70.3167, "lon": -91.6667}}, {"name": "Moulin \u00e0 Bl\u00e9", "id": "e23699bc-1d36-3a1d-9b10-bfa493589663", "coordinates": {"lat": 46.6507, "lon": -71.8898}}, {"name": "Meteghan", "id": "f5adaf72-fbca-3125-ad1d-e3f61f027e91", "coordinates": {"lat": 44.2, "lon": -66.1667}}, {"name": "Miscou", "id": "3a0367d8-527d-33a3-8583-184f342a03a9", "coordinates": {"lat": 47.9, "lon": -64.5833}}, {"name": "Fox Island", "id": "24733ebf-3904-3517-a3de-e665ff9c7e97", "coordinates": {"lat": 48.7333, "lon": -58.7}}, {"name": "Robichaud Spit", "id": "12484265-535f-3924-9601-d0bac2fe8d72", "coordinates": {"lat": 47.1167, "lon": -65.25}}, {"name": "Sable Island", "id": "b6587474-f334-3c76-b703-ba2d6ac42230", "coordinates": {"lat": 43.9667, "lon": -59.8}}, {"name": "Warn Bay", "id": "96a5c47a-b9e8-39fc-ae42-b0ea79b63965", "coordinates": {"lat": 49.2386, "lon": -125.7449}}, {"name": "Resolute", "id": "82f64356-9c0f-3670-bb8b-96264d9481c9", "coordinates": {"lat": 74.6833, "lon": -94.8833}}, {"name": "Wedgeport", "id": "d34721c4-fd54-32fc-bd1b-44b838844631", "coordinates": {"lat": 43.7333, "lon": -65.9833}}, {"name": "Charlton Island", "id": "b1022b90-69e2-3f2a-a27c-db07c9c6e66c", "coordinates": {"lat": 51.9667, "lon": -79.3}}, {"name": "Pacofi", "id": "1f6ce0a2-cc0c-39b5-9793-c3e5903fa6f5", "coordinates": {"lat": 52.8313, "lon": -131.8824}}, {"name": "Whaler Bay", "id": "48c5fb26-b8a6-33af-bd3a-7592676432f3", "coordinates": {"lat": 48.8834, "lon": -123.3255}}, {"name": "Douglas Harbour", "id": "cbcd49ac-3660-330f-9a07-124cfea45f58", "coordinates": {"lat": 61.9167, "lon": -72.6167}}, {"name": "Mont-Louis", "id": "872d66d0-95b4-3417-9296-3b0404a59577", "coordinates": {"lat": 49.2333, "lon": -65.7333}}, {"name": "Vieux-Qu\u00e9bec", "id": "fd2d0bcd-59e3-3a02-9b72-bb4508d9a8db", "coordinates": {"lat": 46.811, "lon": -71.202}}, {"name": "Natkusiak Peninsula", "id": "7d97d731-8bf3-3d49-bd44-1717894eb926", "coordinates": {"lat": 73.0167, "lon": -110.4667}}, {"name": "Sydney", "id": "670e7e82-e595-37c0-9515-833e304dba83", "coordinates": {"lat": 46.15, "lon": -60.2}}, {"name": "Big Bay", "id": "e3e3cf27-9afe-3272-bd34-dc74361cdfd5", "coordinates": {"lat": 50.3925, "lon": -125.1358}}, {"name": "Saltery bay", "id": "2089c09a-3564-3917-a949-9b5a43e21d2d", "coordinates": {"lat": 49.782, "lon": -124.1779}}, {"name": "Ingomar", "id": "383c9827-7aea-376c-8511-161d4ebb66e9", "coordinates": {"lat": 43.5667, "lon": -65.3333}}, {"name": "Port Hood", "id": "b492d772-6313-31af-adc0-c7e372752b5c", "coordinates": {"lat": 46.0167, "lon": -61.5333}}, {"name": "Alison Sound", "id": "b60b6579-484e-3529-9275-9f9d3f5d7497", "coordinates": {"lat": 51.1607, "lon": -126.9821}}, {"name": "Kincolith", "id": "3dbf1542-b30b-34cf-bcda-2aa2ce170df4", "coordinates": {"lat": 54.999, "lon": -129.978}}, {"name": "Surf Inlet", "id": "ccf3949a-bb4b-3842-8c01-01694226fdfa", "coordinates": {"lat": 53.0235, "lon": -128.9065}}, {"name": "Price Island", "id": "6b8a27a4-d871-3f2f-bdbd-cd4f298ab058", "coordinates": {"lat": 52.2783, "lon": -128.675}}, {"name": "Richibucto Cape", "id": "12ca65fd-e0b6-3e1e-8b94-d49e342ef4fe", "coordinates": {"lat": 46.6667, "lon": -64.7}}, {"name": "Grande-Rivi\u00e8re", "id": "b6c5380e-3e3f-3977-8570-748376a3b46e", "coordinates": {"lat": 48.3927, "lon": -64.4925}}, {"name": "Isachsen", "id": "bf34d123-d644-3dc8-8d39-f4b7500e2148", "coordinates": {"lat": 78.7833, "lon": -103.5333}}, {"name": "Musgrave Harbour", "id": "b2ada62d-96fc-3079-b8ef-8a8c99933c2e", "coordinates": {"lat": 49.0333, "lon": -53.0833}}, {"name": "Cook's Harbour", "id": "35a6091c-f5e9-3846-8d6d-02057aefdf82", "coordinates": {"lat": 51.6167, "lon": -55.8667}}, {"name": "Ucluelet", "id": "eb7ab206-d203-3c27-99a1-c9251011cffd", "coordinates": {"lat": 48.9465, "lon": -125.552}}, {"name": "Clark\u00b4s Harbour", "id": "7c67837c-9433-32fa-8efe-f9854d55bea6", "coordinates": {"lat": 43.45, "lon": -65.6333}}, {"name": "Battle Harbour", "id": "5dbc57c7-4d3c-32e6-9864-f4e08565a675", "coordinates": {"lat": 52.2667, "lon": -55.6}}, {"name": "Cape Blomidon", "id": "9858679f-f9e1-31d9-9cf0-299edf4917e8", "coordinates": {"lat": 45.2667, "lon": -64.35}}, {"name": "Herschel Island", "id": "2a3cd238-66bd-3520-963b-9ee5683b345f", "coordinates": {"lat": 69.5667, "lon": -138.9167}}, {"name": "Tysoe Point", "id": "7df44e32-89a3-390c-815e-f4846e819368", "coordinates": {"lat": 69.6167, "lon": -120.7833}}, {"name": "Campbell River *", "id": "a4fefffc-4464-3fd8-aa63-e404ef3f962c", "coordinates": {"lat": 50.0423, "lon": -125.2473}}, {"name": "Oak Point", "id": "a4793db4-0a47-38f0-bced-1615a179acfa", "coordinates": {"lat": 47.1167, "lon": -65.2667}}, {"name": "Fulford Harbour", "id": "760d59f3-05b0-3e5b-8144-9937f5355cec", "coordinates": {"lat": 48.7688, "lon": -123.45}}, {"name": "Tilting Harbour", "id": "19d62d65-e13e-3a2b-a950-0f699d69bea7", "coordinates": {"lat": 49.7, "lon": -54.05}}, {"name": "Godbout", "id": "cc48512b-7837-3548-9166-0c8572f5f750", "coordinates": {"lat": 49.3167, "lon": -67.6}}, {"name": "Cape Berens", "id": "22f7704a-e63c-3171-8825-cfaa10d10091", "coordinates": {"lat": 69.0667, "lon": -90.6333}}, {"name": "Carleton", "id": "a08c8224-e543-35ea-8072-d174e33ea51b", "coordinates": {"lat": 48.1, "lon": -66.1333}}, {"name": "Blanc-Sablon", "id": "e5af90b4-ceed-361e-b673-3eb01b1809db", "coordinates": {"lat": 51.4167, "lon": -57.15}}, {"name": "Saint-Jean-Port-Joli", "id": "47b35096-373f-3d2c-8ba6-e88ac326d018", "coordinates": {"lat": 47.2162, "lon": -70.2747}}, {"name": "Riverport", "id": "2fa83812-68e3-3d77-8a67-f4211ef3418c", "coordinates": {"lat": 44.2833, "lon": -64.3333}}, {"name": "Egg Island", "id": "76f1eb79-c5bd-3d60-9e22-3b949ee03a46", "coordinates": {"lat": 51.2492, "lon": -127.8364}}, {"name": "Cowichan Bay", "id": "5e398c5f-037f-3c7a-9fa4-6fbf7b6f0879", "coordinates": {"lat": 48.7404, "lon": -123.6185}}, {"name": "Gascons", "id": "3c7ab18c-0374-39f7-a789-97081c2ef881", "coordinates": {"lat": 48.1907, "lon": -64.8615}}, {"name": "Long Island", "id": "1824a0cb-cced-3bf5-a7cd-d7b3d6919c21", "coordinates": {"lat": 54.7667, "lon": -79.7333}}, {"name": "Coffin Point", "id": "8e534c63-3098-3856-adf6-ddac59d7efe6", "coordinates": {"lat": 44.8667, "lon": -67.1333}}, {"name": "Lagoon Cove", "id": "0af50298-881b-3307-bc8c-66bf2392a02b", "coordinates": {"lat": 50.5978, "lon": -126.3186}}, {"name": "Little River", "id": "bb1bc442-9115-386e-b819-d3694d89b7c1", "coordinates": {"lat": 49.7413, "lon": -124.9233}}, {"name": "Malpeque", "id": "e936d78e-c236-355e-94c2-6d3905954373", "coordinates": {"lat": 46.5333, "lon": -63.7}}, {"name": "Brown Bay", "id": "a13b9fb9-ec17-37ee-a700-4dab6841174e", "coordinates": {"lat": 50.162, "lon": -125.3745}}, {"name": "West Advocate", "id": "1f0c2c54-5428-3de4-a138-b39fae99d957", "coordinates": {"lat": 45.35, "lon": -64.8167}}, {"name": "Port Hope Simpson", "id": "25c8475a-e897-335e-8d1a-77956bb2a2c5", "coordinates": {"lat": 52.55, "lon": -56.3}}, {"name": "Dalhousie", "id": "b86c0098-eb12-3ab8-90d2-c36fac92d222", "coordinates": {"lat": 48.0667, "lon": -66.3833}}, {"name": "Pointe Heath", "id": "88ae01bd-fffb-3f00-8dc0-ecfeb7715dde", "coordinates": {"lat": 49.0842, "lon": -61.697}}, {"name": "Georgetown", "id": "5c0063a1-df24-3088-bd53-8e78c1832e59", "coordinates": {"lat": 46.1833, "lon": -62.5333}}, {"name": "Comox", "id": "15dc5b1f-0f99-3adc-a8ce-601490d213bd", "coordinates": {"lat": 49.6695, "lon": -124.927}}, {"name": "Schooner Harbour", "id": "5d241007-d93b-3f8c-843c-faa49ad32263", "coordinates": {"lat": 64.4167, "lon": -77.875}}, {"name": "North Point", "id": "29d3d25c-f8f3-3427-879c-69582f452719", "coordinates": {"lat": 47.0667, "lon": -63.9833}}, {"name": "Tuktoyaktuk", "id": "7caebb80-56c7-3e17-80b0-57d0d60693d4", "coordinates": {"lat": 69.4382, "lon": -132.9944}}, {"name": "Skinners Cove", "id": "10155454-e7d6-392c-b3e2-bd401d2f70d9", "coordinates": {"lat": 45.8, "lon": -63.05}}, {"name": "St, Barbe", "id": "a1327caf-6ca8-35d3-8d03-b4e3d5a182dc", "coordinates": {"lat": 51.2, "lon": -56.7667}}, {"name": "Powell River", "id": "e82681fe-95db-3467-b7e1-38737c07782e", "coordinates": {"lat": 49.8705, "lon": -124.5549}}, {"name": "Baxters Harbour", "id": "7c8aee5d-d606-3796-9d7d-863054c6a1a8", "coordinates": {"lat": 45.2333, "lon": -64.5167}}, {"name": "Pelly Island", "id": "8b5221e7-660e-30d6-86b9-cd8e28ff0335", "coordinates": {"lat": 69.6167, "lon": -135.3667}}, {"name": "Shepherd Bay", "id": "d87e308b-da84-35ed-8d55-0454decdb25e", "coordinates": {"lat": 68.7667, "lon": -93.5667}}, {"name": "Seymous Narrows", "id": "08c97363-1504-378b-8b55-ac31473f0723", "coordinates": {"lat": 50.1354, "lon": -125.3457}}, {"name": "Cape Sheridan", "id": "63bad433-cb7f-337d-9b58-a9ff90d6f951", "coordinates": {"lat": 82.45, "lon": -61.5}}, {"name": "Northwest Bay", "id": "43adacba-99d1-3946-bf9f-28af2da0e67d", "coordinates": {"lat": 49.3027, "lon": -124.2022}}, {"name": "False Bay", "id": "fe76b37d-1242-39a6-a573-be0099c35deb", "coordinates": {"lat": 49.483, "lon": -124.35}}, {"name": "Cape Tormentine", "id": "c78686e2-a47e-38cd-a960-bf3b0178dbb6", "coordinates": {"lat": 46.1333, "lon": -63.7667}}, {"name": "Deschaillons *", "id": "dc60d526-198c-37d7-9e88-71673f338641", "coordinates": {"lat": 46.561, "lon": -72.1058}}, {"name": "Graham Pond", "id": "e4aa4485-a353-3775-ac95-e1fd499cff36", "coordinates": {"lat": 46.1, "lon": -62.45}}, {"name": "Saint-Romuald", "id": "9c4dc43d-84d1-3634-9225-93fd3cd3645d", "coordinates": {"lat": 46.7613, "lon": -71.2403}}, {"name": "St. George\u00b4s Bay", "id": "c9aa5af5-70eb-33ad-9509-3a2b12f2ee75", "coordinates": {"lat": 48.4333, "lon": -58.5}}, {"name": "Harrington Harbour", "id": "160abf65-e9d5-32d1-b893-3c4eb8a0a168", "coordinates": {"lat": 50.4967, "lon": -59.4767}}, {"name": "Seal Cove", "id": "9ccf1a04-3df8-3f5a-be82-9eccb68c2750", "coordinates": {"lat": 44.65, "lon": -66.85}}, {"name": "Jessie Point", "id": "15e63785-38fd-32af-9821-38601507ce93", "coordinates": {"lat": 50.951, "lon": -126.8117}}, {"name": "Saint-Pierre", "id": "f6d2eac1-3d5e-39f4-abe1-2aff99f1803b", "coordinates": {"lat": 46.8167, "lon": -56.1833}}, {"name": "Refuge Bay", "id": "aafcc57c-ce5e-3503-94af-7a55a3e28960", "coordinates": {"lat": 54.0534, "lon": -130.5415}}, {"name": "Welcome Bay", "id": "bce6d00e-ba31-3942-8d8b-be879fa3bf1f", "coordinates": {"lat": 49.7004, "lon": -124.551}}, {"name": "Trois-Pistoles", "id": "dee4585f-d88d-31da-a921-519c375077a9", "coordinates": {"lat": 48.1347, "lon": -69.1868}}, {"name": "Gros-Cacouna", "id": "d493023e-465b-33cb-9d0c-814db0445127", "coordinates": {"lat": 47.9333, "lon": -69.5167}}, {"name": "Sault-au-Cochon", "id": "63f43806-4cf5-38cf-9713-55c240ebc399", "coordinates": {"lat": 47.1997, "lon": -70.6358}}, {"name": "Kemano Bay", "id": "4fd636d4-2c5f-32e5-857f-62081bea37eb", "coordinates": {"lat": 53.4784, "lon": -128.1241}}, {"name": "Acadia Cove", "id": "0af01afa-e94a-36b0-a4df-7f353fa9736e", "coordinates": {"lat": 61.35, "lon": -64.9167}}, {"name": "Hampden", "id": "1b2356fe-a5ec-3eff-86fd-5da449ab7b8e", "coordinates": {"lat": 49.5667, "lon": -56.8667}}, {"name": "Coral Harbour", "id": "dba82945-5def-30a4-a52d-36b376a9baf6", "coordinates": {"lat": 64.1333, "lon": -83.1667}}, {"name": "Stewart", "id": "03c5dcb5-c8c9-3c38-9e2d-8111c066c733", "coordinates": {"lat": 55.917, "lon": -130.0104}}, {"name": "Seabreeze Point", "id": "9031085c-eafa-3e95-ad69-815b7090c14f", "coordinates": {"lat": 53.987, "lon": -130.183}}, {"name": "Eastport, Maine", "id": "08565b6f-7808-32df-8446-593d14b48740", "coordinates": {"lat": 44.9, "lon": -66.9833}}, {"name": "Churchill", "id": "c6451252-9406-3b5a-b3ee-96df7544461a", "coordinates": {"lat": 58.7833, "lon": -94.2}}, {"name": "Bunker I, Light", "id": "8e472df5-efba-3095-96a7-fd8cc330c039", "coordinates": {"lat": 43.8167, "lon": -66.15}}, {"name": "Port Blackney", "id": "d0f3a0bd-c0bb-3e47-91df-31b69197eaef", "coordinates": {"lat": 52.3121, "lon": -128.3509}}, {"name": "Big Bras D'or", "id": "8fb1d3a6-eba6-316a-87ac-49ef7c71588c", "coordinates": {"lat": 46.2833, "lon": -60.4333}}, {"name": "Cape Miles", "id": "07a86179-bb3b-3c90-8940-48f1884a1aa4", "coordinates": {"lat": 69.3333, "lon": -90.4667}}, {"name": "Church Point", "id": "86de057b-abb4-341c-814b-199f59daa0db", "coordinates": {"lat": 44.3333, "lon": -66.1167}}, {"name": "Port Mouton", "id": "24a6a43d-8f90-36f1-bade-0d62696743a4", "coordinates": {"lat": 43.9333, "lon": -64.85}}, {"name": "Owen Bay", "id": "b8eea7f0-3b5c-3bce-88ae-374c7885c336", "coordinates": {"lat": 50.3109, "lon": -125.2232}}, {"name": "Bridgewater", "id": "8c133af0-d1ee-358d-9df5-cc5daf9ff5cc", "coordinates": {"lat": 44.3667, "lon": -64.5}}, {"name": "Shippegan Gully", "id": "f203ca38-79ed-3fa5-b75b-979a2d4a3fdc", "coordinates": {"lat": 47.7167, "lon": -64.6667}}, {"name": "Havre de Beaubassin", "id": "71a2dc32-f80d-333a-b51b-a22101844c83", "coordinates": {"lat": 48.0333, "lon": -65.4833}}, {"name": "Franklin River", "id": "ad50b1be-979e-3bf8-b1e7-501c9c2d7a35", "coordinates": {"lat": 49.1076, "lon": -124.8115}}, {"name": "Vancouver *", "id": "f0f6f650-4fe7-3e25-9f58-bcb56968f083", "coordinates": {"lat": 49.2871, "lon": -123.1098}}, {"name": "Sachs Harbour", "id": "31b4c01c-c11a-3204-8c12-c87d378b1aad", "coordinates": {"lat": 71.9667, "lon": -125.25}}, {"name": "Wiah Point", "id": "7ccd4baa-4432-3377-8722-1f20b040685d", "coordinates": {"lat": 54.1124, "lon": -132.3098}}, {"name": "North Sydney *", "id": "ba4d8093-aebe-3172-87e5-a0b950e676e2", "coordinates": {"lat": 46.2167, "lon": -60.25}}, {"name": "Sandy Cove", "id": "ceca7d22-7bc5-300c-a8ec-301da6069dde", "coordinates": {"lat": 44.5, "lon": -66.1}}, {"name": "Cape D\u00b4Or", "id": "674fe7e7-6bbd-3682-a7e4-f6a9ff16d85c", "coordinates": {"lat": 45.2833, "lon": -64.7667}}, {"name": "Black Joke Cove", "id": "304d79b8-1d27-3185-b748-e36426912e33", "coordinates": {"lat": 52.0167, "lon": -55.8667}}, {"name": "Chandler", "id": "a754b02b-906c-33f8-9883-8898c21189be", "coordinates": {"lat": 48.342, "lon": -64.657}}, {"name": "Hope Bay", "id": "99ce5123-8ab4-3c3b-ad91-6ec255372495", "coordinates": {"lat": 48.8033, "lon": -123.2759}}, {"name": "Porpoise Bay", "id": "adb4ebb0-6c73-3bfe-ba75-0be8e75af3c8", "coordinates": {"lat": 49.4825, "lon": -123.7596}}, {"name": "Eastmain", "id": "10117ccd-21eb-3be1-88aa-c48aadd81e1d", "coordinates": {"lat": 52.25, "lon": -78.55}}, {"name": "Pointe Howatson", "id": "81f233d7-0d8b-3346-85c1-0808812c8d22", "coordinates": {"lat": 48.1378, "lon": -65.8368}}, {"name": "Caraquet", "id": "f1834fe0-fcfb-3c4c-a0da-09e63414adaa", "coordinates": {"lat": 47.8, "lon": -64.9333}}, {"name": "Port Simpson", "id": "a66c9397-79f5-3c80-8055-1034fdabcd90", "coordinates": {"lat": 54.5602, "lon": -130.431}}, {"name": "Charlottetown *", "id": "5b958252-c26c-30e4-817b-623430de12f7", "coordinates": {"lat": 46.2167, "lon": -63.1333}}, {"name": "Qu\u00e9bec (Lauzon)", "id": "f511947b-cb21-3601-ba7f-0f5f21acb6ae", "coordinates": {"lat": 46.8325, "lon": -71.1578}}, {"name": "East Sandy Cove", "id": "0251f7c4-399a-3090-8a04-a2263d0258dd", "coordinates": {"lat": 44.4833, "lon": -66.0833}}, {"name": "Jamestown", "id": "35ade59e-4559-3234-a35f-ba3808833b5e", "coordinates": {"lat": 48.4333, "lon": -53.8}}, {"name": "Blacks Harbour", "id": "403b4eb3-4e2a-3787-9b9a-a2a75f3faef8", "coordinates": {"lat": 45.05, "lon": -66.8}}, {"name": "Barrington Passage", "id": "8bfe9aff-7220-33c3-897f-51d664c509e1", "coordinates": {"lat": 43.5333, "lon": -65.6167}}, {"name": "Anse-a-Brillant", "id": "ed81445a-8783-3121-a7fd-9c431034d3a3", "coordinates": {"lat": 48.7207, "lon": -64.2906}}, {"name": "Baie-des-Moutons", "id": "56560aa4-77d6-3755-a262-06e6f908cf08", "coordinates": {"lat": 50.767, "lon": -59.0335}}, {"name": "False Strait", "id": "ff9f54e0-d548-322a-bc1f-20a72d75c0be", "coordinates": {"lat": 71.9833, "lon": -95.1667}}, {"name": "Clearwater Fiord", "id": "987dc730-06ea-3192-bfc9-854e9f4d94b7", "coordinates": {"lat": 66.6, "lon": -67.3167}}, {"name": "North Head", "id": "497d76f0-4d45-34b8-a442-67a2de93bac1", "coordinates": {"lat": 44.7667, "lon": -66.75}}, {"name": "Herring Cove", "id": "31a9ea15-ec75-3fe5-8af5-90cc5dd4564c", "coordinates": {"lat": 45.5667, "lon": -64.9667}}, {"name": "Pictou Island", "id": "2a6715f4-5bd2-34b3-8071-92968b9a2bf7", "coordinates": {"lat": 45.8, "lon": -62.5833}}, {"name": "Havre-aux-Maisons", "id": "1c64a463-f3d9-3634-9f9e-3859895b6a88", "coordinates": {"lat": 47.4053, "lon": -61.836}}, {"name": "Pim Island", "id": "15cfac83-f185-3d67-803d-def03f5dadd4", "coordinates": {"lat": 78.6667, "lon": -74.1667}}, {"name": "Rigolet", "id": "39cee5bf-bea7-3fe2-a56c-8e3d8d5d97ef", "coordinates": {"lat": 54.1833, "lon": -58.4333}}, {"name": "Pugwash", "id": "47b3ad77-58f9-3ce6-95ee-d1fac8ad389e", "coordinates": {"lat": 45.85, "lon": -63.6833}}, {"name": "Cape Scott", "id": "174e2063-20fa-3fd3-ade3-4d4fe72d7f01", "coordinates": {"lat": 50.7799, "lon": -128.43}}, {"name": "Sops Island", "id": "7c62b156-122d-30c3-b4c7-3e4b06fd3a09", "coordinates": {"lat": 49.8333, "lon": -56.7667}}, {"name": "Stag Island", "id": "964e660c-0257-3988-864b-d1b292532b1e", "coordinates": {"lat": 51.6333, "lon": -79.0333}}, {"name": "Frobisher\u00b4s Farthest", "id": "77dcde38-1451-355e-aa61-e1224ae2518d", "coordinates": {"lat": 63.4745, "lon": -68.0232}}, {"name": "Ship Cove ", "id": "869b4b4a-d830-3bf2-808f-217eb145bcda", "coordinates": {"lat": 51.6333, "lon": -55.6333}}, {"name": "Grindstone Island", "id": "f7e7aa9f-c9a2-30da-a3bc-077edb848626", "coordinates": {"lat": 45.7167, "lon": -64.6167}}, {"name": "Pinkney Point ", "id": "e5fc29a3-9de7-3aa5-b491-553be2037034", "coordinates": {"lat": 43.7, "lon": -66.0667}}, {"name": "Bear Island", "id": "355462a2-bd28-3fce-beee-195f6680507e", "coordinates": {"lat": 55.1, "lon": -78.35}}, {"name": "Port Moody", "id": "184fa64b-e654-3945-b3c4-5e28acd6476b", "coordinates": {"lat": 49.2877, "lon": -122.8658}}, {"name": "Antigonish Harbour", "id": "0c54e43e-1077-30da-a098-6b60cf7bf6f7", "coordinates": {"lat": 45.6667, "lon": -61.9167}}, {"name": "Dease Peninsula", "id": "a2ca1900-0701-3bfc-8358-bdadebcc2705", "coordinates": {"lat": 67.2667, "lon": -87.3167}}, {"name": "Purfur Cove", "id": "da604e22-a75c-3b6b-a0b5-80dbfc0824ba", "coordinates": {"lat": 69.8333, "lon": -84.2167}}, {"name": "Tsawwassen", "id": "ff937c94-17d3-391c-81ec-9bfc738ee66a", "coordinates": {"lat": 49.0068, "lon": -123.1293}}, {"name": "Cape Dobbs", "id": "b46c3722-a67e-30dd-ae8b-3639789cbd07", "coordinates": {"lat": 65.0588, "lon": -86.6808}}, {"name": "Port Harmon", "id": "ed0bb546-832c-318e-bac0-75d0f6f5bdd3", "coordinates": {"lat": 48.5167, "lon": -58.5333}}, {"name": "Sainte-Anne-de-Beaupr\u00e9", "id": "c7c91117-ae92-3eff-96f4-f4a40227dc9e", "coordinates": {"lat": 47.0185, "lon": -70.9255}}, {"name": "Belize Inlet", "id": "e93c9adb-6e8b-36c2-a7b4-60ed67a972c8", "coordinates": {"lat": 51.1217, "lon": -127.2735}}, {"name": "Irvines Landing", "id": "8c50d76c-8f1d-3993-90f4-01120377e5b9", "coordinates": {"lat": 49.6329, "lon": -124.0575}}, {"name": "Saint-Laurent (I.O.)", "id": "2ad6001c-3476-31a8-9f77-dc9c19a78483", "coordinates": {"lat": 46.8582, "lon": -71.0033}}, {"name": "Pointe-au-Pic", "id": "32ae2671-2ecc-34d7-8348-043fc5273919", "coordinates": {"lat": 47.6217, "lon": -70.1408}}, {"name": "Cape Sharp", "id": "6b0e5b15-557b-3592-be68-ac8f75508c70", "coordinates": {"lat": 45.3667, "lon": -64.3833}}, {"name": "Johnstown", "id": "1bfe748a-8d4a-33ce-9b49-c0bfcbac98e6", "coordinates": {"lat": 45.8, "lon": -60.75}}, {"name": "Stupart Bay", "id": "32a8fd2f-26da-330c-aa4a-356f19474bb8", "coordinates": {"lat": 61.5833, "lon": -71.5333}}, {"name": "Akulivik", "id": "cef7d00f-bb07-3f40-ba98-3224e96890ee", "coordinates": {"lat": 60.8, "lon": -78.2167}}, {"name": "Ranger Islet", "id": "0e7d09c4-0f62-39cd-8dbb-80594c37754d", "coordinates": {"lat": 54.837, "lon": -130.1748}}, {"name": "Baie-Comeau", "id": "be81321b-d0cf-3942-ac8e-26e4b5e65176", "coordinates": {"lat": 49.2313, "lon": -68.131}}, {"name": "Broad Cove Marsh", "id": "727bb5e0-dcf5-3dab-930c-cf177ef914f6", "coordinates": {"lat": 46.3, "lon": -61.2667}}, {"name": "Klemtu", "id": "3cc34587-ed6b-31fa-9117-5458ac0c3780", "coordinates": {"lat": 52.5942, "lon": -128.5215}}, {"name": "Esquimalt Harbour", "id": "62389dc5-0298-3ad5-8003-1a93ec2d2b55", "coordinates": {"lat": 48.4405, "lon": -123.4498}}, {"name": "Shoal Cove", "id": "28a26e19-898b-3b91-95b2-6992f18f94ec", "coordinates": {"lat": 51.0167, "lon": -57.0167}}, {"name": "Chatham", "id": "bf58ddae-619b-397b-a2df-6b43cbbbc14c", "coordinates": {"lat": 47.0333, "lon": -65.4667}}, {"name": "Lance Cove", "id": "52ad57ef-90bb-3ddb-bbcf-c3218578fd23", "coordinates": {"lat": 47.0833, "lon": -52.9}}, {"name": "Finnerty Cove", "id": "e941d762-6648-3ebd-b35b-61b240389e80", "coordinates": {"lat": 48.4734, "lon": -123.2959}}, {"name": "Orford Bay", "id": "f9619361-9103-3b89-bbb5-d8e3a6bcce04", "coordinates": {"lat": 50.5979, "lon": -124.8694}}, {"name": "Port de Boucherville", "id": "4d972b8e-f7c0-3db2-9abc-a734e50d2f69", "coordinates": {"lat": 63.2, "lon": -77.55}}, {"name": "Port Marnham", "id": "04e79651-7c6e-3570-8ed5-570882787df5", "coordinates": {"lat": 52.3833, "lon": -55.7333}}, {"name": "Back Bay", "id": "bfe86e0c-0186-304b-8a86-e54276f611fc", "coordinates": {"lat": 45.05, "lon": -66.8667}}, {"name": "Ganges Harbour", "id": "400c5fa2-9b54-313e-8a6b-bb3751aaa894", "coordinates": {"lat": 48.8535, "lon": -123.4976}}, {"name": "Margaree Breakwater", "id": "f598ad88-9d63-36d8-bbe9-e618f93076fc", "coordinates": {"lat": 46.45, "lon": -61.1167}}, {"name": "Saint-Augustin", "id": "ae18b8d3-5958-3868-9636-9fb320739c3a", "coordinates": {"lat": 51.1667, "lon": -58.5333}}, {"name": "Rabbit Island", "id": "ca243e2a-7afb-3997-a540-0a814f9b1c88", "coordinates": {"lat": 53.401, "lon": -60.1387}}, {"name": "Cap Pel\u00e9", "id": "e188eaa1-1e23-31e8-8e43-6d0ddb9f28ac", "coordinates": {"lat": 46.2333, "lon": -64.2333}}, {"name": "Cape Kater", "id": "4a75a705-de6a-3931-a17b-ca2f2be8fda9", "coordinates": {"lat": 71.9667, "lon": -90.0667}}, {"name": "Edward Channel", "id": "c37146c6-5530-3459-b03a-fd5a6e4a0311", "coordinates": {"lat": 51.777, "lon": -128.0717}}, {"name": "Cap de Caissie", "id": "4bdf2629-590f-3c1a-84b0-378807fa752d", "coordinates": {"lat": 46.3333, "lon": -64.5167}}, {"name": "Shoal Bay", "id": "5a34c875-26bf-375b-82f4-1260f85eebb9", "coordinates": {"lat": 50.4603, "lon": -125.361}}, {"name": "Havre-Aubert", "id": "239d3338-4bf0-37fb-b333-59378582a621", "coordinates": {"lat": 47.2333, "lon": -61.8333}}, {"name": "Port Elgin", "id": "e6f26fd3-921d-3ae8-9f53-df9412d94d05", "coordinates": {"lat": 46.05, "lon": -64.0667}}, {"name": "Twin Islands", "id": "ce612bc2-c182-31ba-aa6d-1a4dd3d4900a", "coordinates": {"lat": 50.0297, "lon": -124.9362}}, {"name": "Denbigh Island", "id": "7ce4f9de-3b7f-39c8-a916-dca85dd71530", "coordinates": {"lat": 52.5333, "lon": -55.8333}}, {"name": "Halfmoon Bay", "id": "db212da1-2561-3fba-9bd9-450eee7c74a7", "coordinates": {"lat": 49.5115, "lon": -123.9121}}, {"name": "Schooner Cove", "id": "96619218-9f0b-3500-a54d-06abd080c7e8", "coordinates": {"lat": 63.9892, "lon": -94.2686}}, {"name": "Glendale Cove", "id": "b22c6ac5-fb0b-3ca6-b49d-5718add12640", "coordinates": {"lat": 50.6745, "lon": -125.7352}}, {"name": "Bathurst", "id": "6dfa7898-41dd-3d4a-a7ff-2db3439fa917", "coordinates": {"lat": 47.6167, "lon": -65.65}}, {"name": "Rocher Neptune", "id": "9e3bb90c-85c5-34bc-8a35-80a6a4034cd2", "coordinates": {"lat": 47.1617, "lon": -70.6075}}, {"name": "West Quoddy Head", "id": "0b3494de-f507-3e9e-b07a-f10fd13a628c", "coordinates": {"lat": 44.8167, "lon": -66.9667}}, {"name": "Murray Harbour", "id": "a6ae15e5-6581-39cf-a59f-992e8b026074", "coordinates": {"lat": 46.0167, "lon": -62.4833}}, {"name": "Boswell Inlet", "id": "b0184e09-b88a-3f02-bed7-6e2d462be26a", "coordinates": {"lat": 51.3721, "lon": -127.4651}}, {"name": "Fort Ross", "id": "1349e96e-8851-3e33-879b-bc418f1ea3c9", "coordinates": {"lat": 72.0167, "lon": -94.2333}}, {"name": "Cap-aux-Oies", "id": "97350146-ff5f-3aa9-bef0-b71f779a10f3", "coordinates": {"lat": 47.4872, "lon": -70.2327}}, {"name": "Paulatuk", "id": "f958b9a4-88c0-3d6a-817b-6694a5b74a32", "coordinates": {"lat": 69.35, "lon": -124.0667}}, {"name": "Kynumpt Harbour", "id": "5516c6a7-c0ae-3e54-a446-3c712d46445d", "coordinates": {"lat": 52.2083, "lon": -128.1617}}, {"name": "Cap-aux-Corbeaux", "id": "07930ec5-5c5e-3941-95fa-5f8b8d619975", "coordinates": {"lat": 47.4255, "lon": -70.4557}}, {"name": "Cambridge Bay", "id": "0795a5e1-abae-3008-8d1d-46ff679cbe0f", "coordinates": {"lat": 69.1167, "lon": -105.0667}}, {"name": "Little Harbour", "id": "10ce29cb-89b7-3c5f-849a-88c187208932", "coordinates": {"lat": 44.7167, "lon": -62.85}}, {"name": "Cliff Cove", "id": "bd08f459-749c-3b11-bffe-f50f8fc95a5a", "coordinates": {"lat": 44.5167, "lon": -63.9333}}, {"name": "St. Anthony", "id": "3890e7d3-e1bb-3402-b0af-3df602368da3", "coordinates": {"lat": 51.3667, "lon": -55.5833}}, {"name": "Clifton", "id": "2e0481eb-74ea-3418-bb23-abf74c304f3c", "coordinates": {"lat": 48.1833, "lon": -53.7333}}, {"name": "Cypress Bay", "id": "a417f7a9-1c1d-34fd-95e3-38544334a849", "coordinates": {"lat": 49.2609, "lon": -125.871}}, {"name": "Kegashka", "id": "61a32e57-c3bb-385d-aa7c-341ca95474ed", "coordinates": {"lat": 50.1833, "lon": -61.2667}}, {"name": "Disraeli Fiord", "id": "ce1bd880-0c74-3287-8655-bc4ad4eeb4fa", "coordinates": {"lat": 82.8833, "lon": -73.5}}, {"name": "Bella Coola", "id": "dcd19511-f104-3c44-ac83-86a1b3fefa1c", "coordinates": {"lat": 52.3743, "lon": -126.7959}}, {"name": "Centreville", "id": "2b49c11d-811a-3b56-afbb-419b004cbb9f", "coordinates": {"lat": 44.55, "lon": -66.0333}}, {"name": "Strathcona Sound", "id": "3e59275d-976a-309d-b192-0c7451d19d28", "coordinates": {"lat": 73.0697, "lon": -84.5483}}, {"name": "\u00c9tang-du-Nord", "id": "4658dd30-fc27-38f7-a7e5-db12d392d0b8", "coordinates": {"lat": 47.37, "lon": -61.9583}}, {"name": "Sorry Harbour", "id": "aa88c2b2-9236-3fe5-a0fb-799df04dce6b", "coordinates": {"lat": 61.6167, "lon": -64.7333}}, {"name": "KingCome Inlet", "id": "bffef14c-c891-38a0-9780-4482762fb44b", "coordinates": {"lat": 50.9087, "lon": -126.1995}}, {"name": "La Grosse \u00cele", "id": "cbdc52e2-6f2b-3331-a177-f2211a60efc0", "coordinates": {"lat": 47.0195, "lon": -70.6708}}, {"name": "Resor Island", "id": "ae7c7a55-3eb7-3230-963e-30c1598b7394", "coordinates": {"lat": 63.2149, "lon": -67.9904}}, {"name": "Port Greville", "id": "03b8ac5d-d1e1-3ffe-a078-5ac0327f81b6", "coordinates": {"lat": 45.4, "lon": -64.55}}, {"name": "Halifax *", "id": "3bb727a0-ffad-3f51-84d5-3b14ef734ff2", "coordinates": {"lat": 44.6667, "lon": -63.5833}}, {"name": "Savage Cove", "id": "71abc110-ebfd-3c1f-a867-9b67af788344", "coordinates": {"lat": 51.3333, "lon": -56.7}}, {"name": "Beechey Island", "id": "a0ec1686-08be-30c5-a063-88ffec1e4b1e", "coordinates": {"lat": 74.7167, "lon": -91.9}}, {"name": "Trinity", "id": "c152b4b1-538b-30b7-b037-e60e2a658b7f", "coordinates": {"lat": 48.3667, "lon": -53.35}}, {"name": "Ile des Esquimaux", "id": "2e659708-abe7-31eb-8db4-5dd0a742a32e", "coordinates": {"lat": 51.424, "lon": -57.7025}}, {"name": "Le Petit P\u00e9lerin", "id": "7c7f5586-49b8-3b85-9f2b-ff024c4f36e0", "coordinates": {"lat": 47.701, "lon": -69.7583}}, {"name": "Les Escoumins", "id": "e5d1d859-6433-3eef-bc6f-b4d192d84a64", "coordinates": {"lat": 48.3462, "lon": -69.3888}}, {"name": "Westport", "id": "08103be0-c30c-37fe-9fd9-c4c8f23eb1ab", "coordinates": {"lat": 44.2667, "lon": -66.35}}, {"name": "Clyde River", "id": "f3d1df67-f81b-37da-929f-8a28aa379b3e", "coordinates": {"lat": 69.8333, "lon": -70.3667}}, {"name": "Pecks Point", "id": "e8b663b9-30c1-3de4-aba9-828d8aa08551", "coordinates": {"lat": 45.75, "lon": -64.4833}}, {"name": "Gillies Island", "id": "08bea4a1-8726-3e63-ad9e-bcee33862323", "coordinates": {"lat": 56.55, "lon": -76.6333}}, {"name": "Rimouski *", "id": "6432ff0a-4a4d-3a74-a3dc-9c106cbe050a", "coordinates": {"lat": 48.4783, "lon": -68.5137}}, {"name": "Glovertown", "id": "ca62ba47-82fa-3df4-ba13-097bdd3bc0b0", "coordinates": {"lat": 48.6833, "lon": -54.0}}, {"name": "Lower East Pubnico", "id": "5c0e6f49-2ad0-3de1-9cdc-267c7ad831c0", "coordinates": {"lat": 43.6333, "lon": -65.7667}}, {"name": "Dipper Harbour West", "id": "f0315c27-4bd8-342e-bf22-2315d798189e", "coordinates": {"lat": 45.1, "lon": -66.4333}}, {"name": "Beaver Harbour", "id": "e6f902c1-5d07-3c6e-8ec1-e1733369936a", "coordinates": {"lat": 45.0667, "lon": -66.7333}}, {"name": "Cape Sibbald", "id": "a2a65756-f345-3062-8800-33e9900859ab", "coordinates": {"lat": 68.3333, "lon": -85.7667}}, {"name": "Baie Johan-Beetz", "id": "4c17e690-4bbc-351c-a9ef-5dd0087bc8b3", "coordinates": {"lat": 50.2833, "lon": -62.8}}, {"name": "Canso Harbour", "id": "37c3ce7d-3696-39cf-a276-c48350e616e4", "coordinates": {"lat": 45.3333, "lon": -61.0}}, {"name": "Lower Neguac", "id": "ec7400c4-f893-3469-a9b3-9f00c4f9104d", "coordinates": {"lat": 47.2667, "lon": -65.0667}}, {"name": "Summerside", "id": "ceec0581-816f-3380-bb4e-a9abb92bbd3e", "coordinates": {"lat": 46.3833, "lon": -63.7833}}, {"name": "Fermeuse Harbour", "id": "257a6766-3f9e-3b28-af80-0648a77207c3", "coordinates": {"lat": 46.9667, "lon": -52.9667}}, {"name": "Letang Harbour", "id": "11ab287e-35c5-3251-ae7d-d131595594b9", "coordinates": {"lat": 45.0833, "lon": -66.7833}}, {"name": "South Lubec", "id": "1e18672f-46fb-3ee2-900e-20f9ec3a26e9", "coordinates": {"lat": 44.8667, "lon": -66.9833}}, {"name": "Pas966", "id": "a9a0a559-b326-3612-b3ba-7b7392fec85e", "coordinates": {"lat": 47.1585, "lon": -70.6582}}, {"name": "Mine Seleine", "id": "93913808-4282-376a-a772-dfc9769ce1e7", "coordinates": {"lat": 47.6117, "lon": -61.56}}, {"name": "Abbotts Harbour", "id": "e60d7d72-30be-328e-8467-d6897bda369e", "coordinates": {"lat": 43.6667, "lon": -65.8167}}, {"name": "Terrington Basin", "id": "5487e263-f22c-34b3-894a-bc4444cef8df", "coordinates": {"lat": 53.35, "lon": -60.4}}, {"name": "Sand Head", "id": "252eef83-96bf-3178-b2fb-9df7992a1b3c", "coordinates": {"lat": 51.4167, "lon": -80.35}}, {"name": "Trounce Inlet", "id": "499b5218-2d5c-3bf6-a4f1-3a9d8a6633c9", "coordinates": {"lat": 53.1482, "lon": -132.3224}}, {"name": "Rivi\u00e8re-du-Loup", "id": "6d8c7eae-19f1-3c22-a87c-8de9ca1cc66c", "coordinates": {"lat": 47.85, "lon": -69.5667}}, {"name": "Pointe-Nord", "id": "349d90cb-715f-3768-8719-e29515dff7e1", "coordinates": {"lat": 49.9517, "lon": -64.15}}, {"name": "Ocean Falls", "id": "5283c46f-e846-3e5f-83a3-5ee527ffd547", "coordinates": {"lat": 52.3521, "lon": -127.6926}}, {"name": "Hornby Island", "id": "9b2762c7-5b69-36da-bdad-e48303f25d29", "coordinates": {"lat": 49.4962, "lon": -124.676}}, {"name": "Port Neville", "id": "9c531682-52ea-35bd-8ccb-9c3526bbc6f6", "coordinates": {"lat": 50.4957, "lon": -126.0871}}, {"name": "Chicoutimi", "id": "79ef43f3-e1db-3f55-bb2c-6de2119d13ba", "coordinates": {"lat": 48.4308, "lon": -71.0548}}, {"name": "North West River", "id": "4ee05c6b-cf95-38d4-aa37-1107fd186491", "coordinates": {"lat": 53.5235, "lon": -60.134}}, {"name": "Cannes", "id": "d85e9290-fae2-3571-b1e6-32ee06534ee9", "coordinates": {"lat": 45.6333, "lon": -60.9667}}, {"name": "Forteau", "id": "5ce7992c-b796-3b1b-91f6-1a32d3594907", "coordinates": {"lat": 51.45, "lon": -56.8833}}, {"name": "Ile Bicquette", "id": "f9789813-5fde-3edf-8d01-7fd91a7dc5ad", "coordinates": {"lat": 48.4155, "lon": -68.8933}}, {"name": "Caribou", "id": "bbe51ea0-31e4-31c0-ac21-7838273c93ac", "coordinates": {"lat": 45.7333, "lon": -62.6833}}, {"name": "Grand Bay", "id": "743385c3-e57a-37f0-9ed9-cb3af57f8ff5", "coordinates": {"lat": 47.5333, "lon": -59.3667}}, {"name": "Needle Cove", "id": "04e990f0-7802-3d56-b953-8d277e3f45ae", "coordinates": {"lat": 69.1017, "lon": -79.095}}, {"name": "Margeree Bridge", "id": "e855963a-aa79-3f32-b98a-d078e8b05123", "coordinates": {"lat": 46.4, "lon": -61.0833}}, {"name": "Boom Islet", "id": "dc630afb-1da7-3eb8-8636-58c988f9b2cf", "coordinates": {"lat": 49.745, "lon": -123.9017}}, {"name": "Portage Inlet", "id": "851004a3-c1d7-3467-b92c-3f4422dc94ea", "coordinates": {"lat": 48.4572, "lon": -123.4158}}, {"name": "Partridge Island", "id": "1d3fc682-1057-30fe-baca-4ce8df5c8a41", "coordinates": {"lat": 45.2333, "lon": -66.05}}, {"name": "Copper Islands", "id": "0518ee49-b856-367f-9fed-ff8d16f2d6a4", "coordinates": {"lat": 52.3597, "lon": -131.1807}}, {"name": "Smokey", "id": "292ef6c2-6656-36d2-9232-c45259f630fb", "coordinates": {"lat": 54.4667, "lon": -57.25}}, {"name": "Alert Bay", "id": "983a00bc-61ef-3abc-ac7f-4ecdcf40d006", "coordinates": {"lat": 50.587, "lon": -126.9306}}, {"name": "New Westminster *", "id": "6292e178-ba51-3329-813f-0deb8763d255", "coordinates": {"lat": 49.2002, "lon": -122.9104}}, {"name": "Pond Inlet", "id": "6b816e94-0b3a-3cca-aba6-122796ac32be", "coordinates": {"lat": 72.7167, "lon": -77.9833}}, {"name": "Duffus Point", "id": "ddab7aa4-2282-3aa7-a205-f19112e6569d", "coordinates": {"lat": 46.2811, "lon": -60.424}}, {"name": "Ford Harbour", "id": "50389555-5743-3da2-a698-cd371efe7e26", "coordinates": {"lat": 56.45, "lon": -61.2}}, {"name": "Trois-Rivi\u00e8res *", "id": "3ec32919-502e-3d92-b124-de239942fbf3", "coordinates": {"lat": 46.3405, "lon": -72.5392}}, {"name": "Fogo Harbour", "id": "a5c451cf-e0ff-39c7-a50f-0a061820a840", "coordinates": {"lat": 49.7333, "lon": -54.2833}}, {"name": "Tidnish", "id": "cd688465-7119-390a-a805-ccf2f8db902a", "coordinates": {"lat": 46.0, "lon": -64.0167}}, {"name": "Tracadie", "id": "79e1ba9a-a813-317a-82af-7d2f37a3fd1b", "coordinates": {"lat": 47.5167, "lon": -64.8667}}, {"name": "Shippagan", "id": "d50134ea-692a-3a42-99f8-1f138d2fca28", "coordinates": {"lat": 47.75, "lon": -64.7}}, {"name": "Gerald Point", "id": "f8dd5f45-d7df-3a43-b82b-7aad3d0eab20", "coordinates": {"lat": 52.438, "lon": -128.0836}}, {"name": "Welcome Harbour", "id": "faf1e59b-6d1f-3d9b-905b-ed56a85ebd3b", "coordinates": {"lat": 54.0238, "lon": -130.614}}, {"name": "Pointe-Basse", "id": "4e9844b1-8534-3ee9-b592-1107865946d5", "coordinates": {"lat": 47.39, "lon": -61.7883}}, {"name": "Redonda Bay", "id": "ceb7a40e-54dc-39dd-8c51-ff874151963f", "coordinates": {"lat": 50.2607, "lon": -124.9549}}, {"name": "Mal-Bay", "id": "59cce154-946d-31b0-9fae-765af06d5510", "coordinates": {"lat": 48.6202, "lon": -64.2}}, {"name": "Spider Island", "id": "2f058d61-2f77-3ba5-a0b9-2bc6f905bcc2", "coordinates": {"lat": 51.8422, "lon": -128.2303}}, {"name": "Victoria *", "id": "3c32248f-7d78-37c1-a2a3-9b151d9ac655", "coordinates": {"lat": 48.4244, "lon": -123.371}}, {"name": "Zeballos", "id": "1d28473b-37fc-344b-91d3-514ed91927a2", "coordinates": {"lat": 49.9785, "lon": -126.8459}}, {"name": "Shelburne", "id": "02fcb232-2dff-34c6-b252-fa4513257b45", "coordinates": {"lat": 43.75, "lon": -65.3}}, {"name": "White Bear Arm", "id": "ae7b3ad2-f768-3fcf-a232-0fce8c520b52", "coordinates": {"lat": 52.735, "lon": -55.83}}, {"name": "Couteau Bay", "id": "34356693-cb96-3a6a-a2b4-69aa14eb4b6c", "coordinates": {"lat": 47.7167, "lon": -58.05}}, {"name": "Rustico", "id": "b69a29fc-d5e8-3170-ad4c-8c1fec1b958e", "coordinates": {"lat": 46.4667, "lon": -63.2833}}, {"name": "Farewell", "id": "da33b622-602e-3cba-b042-1e7fd2a26993", "coordinates": {"lat": 49.55, "lon": -54.4667}}, {"name": "Ste-Th\u00e9r\u00e8se-de-Gasp\u00e9", "id": "2effb048-e664-306a-88f7-ea0b8beaf7b3", "coordinates": {"lat": 48.415, "lon": -64.3952}}, {"name": "Masset", "id": "4b097444-057d-3e17-81f7-1e2f47639122", "coordinates": {"lat": 54.0097, "lon": -132.1493}}, {"name": "Crofton", "id": "4f2a5f2f-9681-3898-8023-a48112f6d69a", "coordinates": {"lat": 48.8747, "lon": -123.6435}}, {"name": "Rivi\u00e8re-au-Renard *", "id": "38f7b5d5-5481-36e8-ba50-53d858ad919a", "coordinates": {"lat": 48.997, "lon": -64.3805}}, {"name": "Chezzetcook Inlet", "id": "19467435-85d6-362b-9597-b53bf014d922", "coordinates": {"lat": 44.7833, "lon": -63.2333}}, {"name": "Merigomish", "id": "8e403da4-403d-3cbc-991c-294c69aaa0a5", "coordinates": {"lat": 45.65, "lon": -62.45}}, {"name": "Mereworth Sound", "id": "8af99fa7-b497-3862-bc55-21e4cfda1273", "coordinates": {"lat": 51.1755, "lon": -127.4093}}, {"name": "Sept-\u00celes *", "id": "23367185-12fc-32f7-a247-906658a45347", "coordinates": {"lat": 50.2167, "lon": -66.4}}, {"name": "Hatfield Point", "id": "f050a12f-0499-37d3-9277-9f24e1ffb759", "coordinates": {"lat": 45.65, "lon": -65.8667}}, {"name": "Crown Prince Frederick", "id": "476c2692-4143-3676-90b6-58e39d0d2762", "coordinates": {"lat": 70.0, "lon": -87.1}}, {"name": "Iceberg Point", "id": "871acd6b-6d8c-3266-bcc5-b21e970bc8b9", "coordinates": {"lat": 80.4167, "lon": -86.1667}}, {"name": "Newcastle Creek", "id": "8776ef08-cce3-3d46-a11b-a6754f5c49df", "coordinates": {"lat": 46.0667, "lon": -66.0}}, {"name": "Finlayson Arm", "id": "5c247bc6-1418-3e00-9cd8-bc08e597d3ea", "coordinates": {"lat": 48.4966, "lon": -123.5529}}, {"name": "Hubbards", "id": "b7424c8c-d612-3dbd-9cdf-ebcaf9ae8780", "coordinates": {"lat": 44.6333, "lon": -64.05}}, {"name": "Bell Island", "id": "652c3437-2eac-3c0e-b3e3-cb7028489368", "coordinates": {"lat": 47.6333, "lon": -52.9333}}, {"name": "Cedar Island", "id": "fb93e476-e2d8-3346-bac3-26fbae74e06e", "coordinates": {"lat": 50.6567, "lon": -126.675}}, {"name": "Qikiqtarjuaq", "id": "b4c27bca-1a93-3437-9bde-889225baf450", "coordinates": {"lat": 67.5167, "lon": -64.0667}}, {"name": "Squamish", "id": "dfbc7b7f-5c01-3f92-81be-89567ccb5260", "coordinates": {"lat": 49.6946, "lon": -123.155}}, {"name": "Change Islands", "id": "f2b6966d-a659-356f-93f2-cf5bc8c6044c", "coordinates": {"lat": 49.6667, "lon": -54.4167}}, {"name": "Cape Egmont", "id": "feec3c51-d542-3a0e-8d38-d400d0a36e56", "coordinates": {"lat": 46.4, "lon": -64.1333}}, {"name": "Advocate Harbour", "id": "a9b86d0b-4dfd-3bc4-9be6-20ef29323e50", "coordinates": {"lat": 45.3333, "lon": -64.7833}}, {"name": "Cheticamp", "id": "3076c7df-000e-3932-9992-48cc966b77b9", "coordinates": {"lat": 46.6333, "lon": -61.0167}}, {"name": "Larrys River", "id": "078a73d4-6807-3743-911e-142cc5c19c0a", "coordinates": {"lat": 45.2167, "lon": -61.3833}}, {"name": "Milne Inlet", "id": "271cbf08-26ac-310f-b0e8-38f10ace7c73", "coordinates": {"lat": 71.8936, "lon": -80.8555}}, {"name": "Cribbons Point", "id": "debcd4a2-5bcc-39a2-9f28-f933bc067d7c", "coordinates": {"lat": 45.75, "lon": -61.9}}, {"name": "Granby Bay", "id": "5df1855a-1e91-385c-98f1-055ca9ae70b4", "coordinates": {"lat": 55.416, "lon": -129.818}}, {"name": "Saint-Sim\u00e9on", "id": "7f33577c-59fb-330c-8e16-8a418cf2c49c", "coordinates": {"lat": 47.8407, "lon": -69.8732}}, {"name": "Kitkatla Islands", "id": "f4c46b88-3728-31bc-8661-7418ecc1f00e", "coordinates": {"lat": 53.8028, "lon": -130.3574}}, {"name": "Evandale", "id": "d457d024-46c4-3a25-b6c8-8fcf37ab6e49", "coordinates": {"lat": 45.5833, "lon": -66.0333}}, {"name": "Sidney", "id": "774c0d62-02df-3c76-b2bf-5831a75777b9", "coordinates": {"lat": 48.6492, "lon": -123.3935}}, {"name": "Lavoie Islands (Bernier Bay)", "id": "d5c7f028-7835-396a-90a1-4f6fa96e87f5", "coordinates": {"lat": 71.0167, "lon": -87.5333}}, {"name": "Louisbourg", "id": "f7fe79eb-d280-39b0-88da-d724923b7afe", "coordinates": {"lat": 45.9167, "lon": -59.9667}}, {"name": "Kuujjuaq", "id": "73225a0e-56be-3949-8347-bd9131205eb2", "coordinates": {"lat": 58.1, "lon": -68.3167}}, {"name": "Kuujjuarapik", "id": "25d94a83-3cbb-32e0-b606-acd046ef1016", "coordinates": {"lat": 55.2667, "lon": -77.7667}}, {"name": "Saint John *", "id": "b7fbd641-b8bc-31ed-81c8-e339a35b2df8", "coordinates": {"lat": 45.2667, "lon": -66.0667}}, {"name": "Pointe-Saint-Pierre", "id": "ed698f14-e391-3f72-ab62-65b080a6e423", "coordinates": {"lat": 48.6333, "lon": -64.1667}}, {"name": "Cape Capstan", "id": "d3017830-11a4-3ee1-8368-a548b1e5ff18", "coordinates": {"lat": 45.4667, "lon": -64.85}}, {"name": "Old Harry", "id": "c926d181-b22e-3173-9f52-1facdbba32aa", "coordinates": {"lat": 47.5717, "lon": -61.4667}}, {"name": "Miguasha", "id": "7c2b0327-b4dc-3a3e-ac2c-d4c47be34a02", "coordinates": {"lat": 48.1065, "lon": -66.3538}}, {"name": "Rivi\u00e8re Koksoak", "id": "7357289e-924d-323f-a2fb-cf9b8f670746", "coordinates": {"lat": 58.5333, "lon": -68.2}}, {"name": "Pas883", "id": "22487374-eefd-3a76-b8b9-36031bb51542", "coordinates": {"lat": 46.9248, "lon": -70.869}}, {"name": "Alberton", "id": "6807bf09-b90d-3567-a075-e9f8f5bf0bbe", "coordinates": {"lat": 46.8, "lon": -64.0667}}, {"name": "Newcastle", "id": "d573a1f1-f52a-3279-9168-663981b3071d", "coordinates": {"lat": 47.0, "lon": -65.5667}}, {"name": "B\u00e9cancour *", "id": "06717332-bb58-3006-9acd-cf55f42b88c2", "coordinates": {"lat": 46.4003, "lon": -72.3795}}, {"name": "Pangnirtung", "id": "dd8b0bb2-4bcd-3d86-8692-8f03a21832ff", "coordinates": {"lat": 66.1409, "lon": -65.8284}}, {"name": "Montague", "id": "21309838-d0ba-358a-b74f-1f356ca795eb", "coordinates": {"lat": 46.1667, "lon": -62.65}}, {"name": "Le Gros Mechins", "id": "4881e4b2-927c-3806-bd63-22856ef9f0bd", "coordinates": {"lat": 49.0058, "lon": -66.9775}}, {"name": "Millerand", "id": "833300fc-4e5d-322f-90e5-ec31dc0f18bc", "coordinates": {"lat": 47.2183, "lon": -61.985}}, {"name": "Heriot Bay", "id": "9a77fbbd-0a83-3740-893e-a9b38806d1cd", "coordinates": {"lat": 50.1, "lon": -125.2167}}, {"name": "Miminegash", "id": "09c0003d-1bbb-35c6-ab8c-baadb27b8803", "coordinates": {"lat": 46.8833, "lon": -64.2333}}, {"name": "S\u00e9vigny Point", "id": "e8664164-1782-3e2c-a430-18a35564a606", "coordinates": {"lat": 69.7833, "lon": -82.1167}}, {"name": "Port de Laperriere", "id": "0cfbf20b-efae-38a0-adfc-1a8a7f05535d", "coordinates": {"lat": 62.5667, "lon": -78.0667}}, {"name": "La Grande Rivi\u00e8re", "id": "aeca402a-2556-333e-8327-aed6fbfa94b8", "coordinates": {"lat": 53.85, "lon": -79.15}}, {"name": "Renouf Island", "id": "5a0307b0-22d2-31b9-b932-b87b01ef965f", "coordinates": {"lat": 56.6167, "lon": -79.2167}}, {"name": "Saint-Godefroi", "id": "271c195d-f3b8-3cd2-b536-9e2846239d21", "coordinates": {"lat": 48.0733, "lon": -65.1133}}, {"name": "Hook Island", "id": "8714f88d-4598-3d93-99a8-59d29f00595b", "coordinates": {"lat": 53.4333, "lon": -79.1167}}, {"name": "Immigration Wharf", "id": "dad83437-faa3-3e64-9be7-81f6221c7367", "coordinates": {"lat": 46.7917, "lon": -71.2273}}, {"name": "Port Burwell", "id": "fcf21e40-6f53-38c3-a3c2-1f30329725f7", "coordinates": {"lat": 60.4167, "lon": -64.85}}, {"name": "Agvik Island", "id": "85347c93-6c6f-37d5-abde-2108be25b30a", "coordinates": {"lat": 60.0167, "lon": -69.7}}, {"name": "Grande \u00cele", "id": "0fa4ff94-3847-35cf-999f-43d57a399ee5", "coordinates": {"lat": 47.6242, "lon": -69.8608}}, {"name": "Airstrip Point", "id": "73501889-4201-392e-8270-10b5638e925c", "coordinates": {"lat": 76.0833, "lon": -97.7333}}, {"name": "Yarmouth *", "id": "3e7338ce-76db-3e3e-99ab-bf31cfb71bff", "coordinates": {"lat": 43.8333, "lon": -66.1167}}, {"name": "Long Harbour", "id": "94831a06-f0c3-3d62-8455-6956cba05d36", "coordinates": {"lat": 47.4333, "lon": -54.8167}}, {"name": "Ile Verte", "id": "a736337c-e0c4-398c-aded-8a431a7176b1", "coordinates": {"lat": 48.0333, "lon": -69.4167}}, {"name": "Smith Inlet", "id": "92613cee-e02d-35cd-9d81-57d3194651c1", "coordinates": {"lat": 51.3333, "lon": -127.1833}}, {"name": "Port Alberni", "id": "e9518e52-0c8b-3072-931e-fc97703d0f69", "coordinates": {"lat": 49.2331, "lon": -124.8139}}, {"name": "Cape Aldrich", "id": "8fab31f4-91c7-3bdd-9c47-f348c16d9fd3", "coordinates": {"lat": 83.1167, "lon": -69.6667}}, {"name": "Alexandra Fiord", "id": "9ed25527-3f2c-3142-9e00-e916de91fefd", "coordinates": {"lat": 78.92, "lon": -75.5167}}, {"name": "Port Clements", "id": "ce76753f-7ec6-3973-9848-1b914ace9c44", "coordinates": {"lat": 53.6883, "lon": -132.1865}}, {"name": "Boutiliers Point", "id": "c77dcd2a-1d3f-3466-8160-fb50f59af96f", "coordinates": {"lat": 44.65, "lon": -63.95}}, {"name": "Cap-Chat", "id": "e2764b04-a0e7-37ff-9ec5-edc9c1b5baa5", "coordinates": {"lat": 49.0983, "lon": -66.6815}}, {"name": "Grande-Anse", "id": "4eff9550-3957-3edc-bf35-eb0c1f856844", "coordinates": {"lat": 48.4017, "lon": -70.8328}}, {"name": "Cape Capel", "id": "b5076ecd-2c4e-3177-af14-921caf9a72b5", "coordinates": {"lat": 75.0333, "lon": -98.0333}}, {"name": "Burntcoat Head", "id": "e706c671-9290-3cf6-9df7-679a5f6e61cf", "coordinates": {"lat": 45.3, "lon": -63.8}}, {"name": "Point Tupper", "id": "9fdaa4dc-4fcb-3039-a52d-efa8fb48e6d3", "coordinates": {"lat": 45.6, "lon": -61.3667}}, {"name": "Winter Harbour *", "id": "d6674fb3-f3b6-33fd-a953-675d8f4104ba", "coordinates": {"lat": 50.5128, "lon": -128.029}}, {"name": "La Pointe", "id": "7f26aa0a-703c-37cf-bb4a-a2779ff7fc28", "coordinates": {"lat": 46.6, "lon": -61.05}}, {"name": "Borden", "id": "fd0defec-4f4f-3eb7-982e-311e1e6a6bec", "coordinates": {"lat": 46.25, "lon": -63.7}}, {"name": "Lorneville", "id": "c8f6cf4d-efce-3516-8c48-5adcafe43f33", "coordinates": {"lat": 45.2, "lon": -66.15}}, {"name": "Inukjuak", "id": "4513fa30-929b-341d-b6df-66197fc29a91", "coordinates": {"lat": 58.45, "lon": -78.1}}, {"name": "Mitlenatch Island", "id": "bd917b8a-86f1-3d5d-9be4-8c0911c84ca0", "coordinates": {"lat": 49.9505, "lon": -124.9978}}, {"name": "White Rock", "id": "6ba868c0-f1df-3488-973d-6dc713d693a2", "coordinates": {"lat": 49.0211, "lon": -122.8058}}, {"name": "Newman Sound", "id": "2f952907-1399-367d-b497-6a977a2dd7c4", "coordinates": {"lat": 48.5833, "lon": -53.95}}, {"name": "Baie-Ste-Catherine", "id": "ec6bdda5-841f-35f4-8147-300784c78be7", "coordinates": {"lat": 48.1263, "lon": -69.7298}}, {"name": "Tumbo Channel", "id": "f25e73bc-fa26-382d-b7cf-f992856097c2", "coordinates": {"lat": 48.7928, "lon": -123.1095}}, {"name": "Bay St. Lawrence", "id": "ee86e140-7891-3d6b-9b0b-da04c1e3204a", "coordinates": {"lat": 47.0167, "lon": -60.45}}, {"name": "Kelsey Bay", "id": "34073907-66e2-3a1f-8967-daa495d9213b", "coordinates": {"lat": 50.3978, "lon": -125.9612}}, {"name": "Oscar Bay", "id": "9249d82d-381a-318c-ab9b-971ec00a7c5b", "coordinates": {"lat": 69.7798, "lon": -95.8339}}, {"name": "Radstock Bay", "id": "086e3d20-1ac7-3e60-9664-c90f906b6e50", "coordinates": {"lat": 74.7167, "lon": -91.0833}}, {"name": "Tignish", "id": "4ad5ccad-4e4f-3e28-85d3-bf77bfc61668", "coordinates": {"lat": 46.95, "lon": -64.0}}, {"name": "Hickman's Harbour", "id": "e987c21f-e589-3d7f-996d-619d8aa89210", "coordinates": {"lat": 48.1, "lon": -53.7333}}, {"name": "Gorge Harbour", "id": "d9ffaf7a-8812-31c4-87b2-8df5e4d421e6", "coordinates": {"lat": 50.092, "lon": -124.9889}}, {"name": "Becher Bay", "id": "73435b78-8c17-38c8-8ddd-62d722b9e762", "coordinates": {"lat": 48.3353, "lon": -123.6037}}, {"name": "Tomlee Bay", "id": "dbb45766-8315-3b0f-b6d5-9ba5e1570a0c", "coordinates": {"lat": 44.8333, "lon": -62.6}}, {"name": "Winchelsea Islands", "id": "6695491e-5f68-36b8-a1c8-ea159d59cd43", "coordinates": {"lat": 49.2936, "lon": -124.0854}}, {"name": "Arnold\u00b4s Cove", "id": "8f432398-5886-373c-95ef-ea0f40937bd5", "coordinates": {"lat": 47.75, "lon": -54.0}}, {"name": "Digges Harbour", "id": "ec42914c-6d9b-32d5-b271-98cfa8284fe8", "coordinates": {"lat": 62.5667, "lon": -77.8667}}, {"name": "Waddington Harbour", "id": "7b58e303-f7c8-3d13-8277-369ab75dc353", "coordinates": {"lat": 50.8727, "lon": -124.8357}}, {"name": "Brownell Point", "id": "3f4a81e1-61cf-33bb-bf82-13bb068c13d8", "coordinates": {"lat": 59.4167, "lon": -63.85}}, {"name": "Preedy Harbour", "id": "a255e1d0-b475-32f5-9f29-6d46b9072373", "coordinates": {"lat": 48.9802, "lon": -123.6772}}, {"name": "Argentia *", "id": "c0163abb-b6e5-3cef-875b-441dc6ec4b8c", "coordinates": {"lat": 47.3, "lon": -53.9833}}, {"name": "Lark Harbour", "id": "72259ccf-6956-3f81-87b9-2b893234b13c", "coordinates": {"lat": 49.1, "lon": -58.3667}}, {"name": "Slatons Brook", "id": "ad32a0d1-c1de-3442-bc3b-1b57fb4bbfe1", "coordinates": {"lat": 48.5833, "lon": -53.95}}, {"name": "Brevoort Harbour", "id": "122d4437-82fe-32c7-aba4-292b6a30e689", "coordinates": {"lat": 63.3167, "lon": -64.15}}, {"name": "Bennett Bay", "id": "8939899a-b55f-387c-a75c-adccbd9b5fe8", "coordinates": {"lat": 65.8751, "lon": -89.5286}}, {"name": "Whaletown Bay", "id": "78e13d5e-0c44-3aa5-9160-edfaf1663f4c", "coordinates": {"lat": 50.1077, "lon": -125.0518}}, {"name": "Rigby Bay", "id": "20af10f0-0eba-32d1-8f86-85e260166e45", "coordinates": {"lat": 74.55, "lon": -90.1667}}, {"name": "Port Hawkesbury", "id": "1102b731-57b7-3edf-8974-8f9c366d2d71", "coordinates": {"lat": 45.6167, "lon": -61.3667}}, {"name": "Upper Port La Tour", "id": "721daf0f-8914-3684-a4c3-4bebd8776ce7", "coordinates": {"lat": 43.5167, "lon": -65.4667}}, {"name": "Saint-Charles", "id": "c179af1d-8016-3471-bf85-abdf40d778f0", "coordinates": {"lat": 46.8245, "lon": -71.1983}}, {"name": "Kugaaruk", "id": "ad3710bf-c780-3b78-a694-7794721545ad", "coordinates": {"lat": 68.55, "lon": -89.8833}}, {"name": "Ile Basking", "id": "6da1d335-2f6b-3543-a40e-bfce916f6700", "coordinates": {"lat": 59.9833, "lon": -70.0833}}, {"name": "Stuart Narrows", "id": "f23881f7-1feb-3617-971d-96961823401c", "coordinates": {"lat": 50.897, "lon": -126.896}}, {"name": "Port-Alfred", "id": "c2a46987-dab3-374c-bd3d-13bc79e0207b", "coordinates": {"lat": 48.334, "lon": -70.8692}}, {"name": "Lewisporte", "id": "6f5af924-6e77-3b69-9254-2bf58db081b3", "coordinates": {"lat": 49.2333, "lon": -55.05}}, {"name": "Surge Narrows", "id": "63879271-19f5-3f13-86f1-c8152db7d8aa", "coordinates": {"lat": 50.2272, "lon": -125.1117}}, {"name": "Nicholson Creek", "id": "2f420339-bd06-38e7-bd05-b5cc1215554f", "coordinates": {"lat": 51.3, "lon": -80.5667}}, {"name": "Heater Harbour", "id": "478237e0-38d5-3cdd-b9fd-0ad263111b90", "coordinates": {"lat": 52.12, "lon": -131.0333}}, {"name": "Gordon Islands", "id": "ff85a1c4-592d-3663-b861-b3ffc4888807", "coordinates": {"lat": 52.0947, "lon": -131.141}}, {"name": "Traverse Saint-Roch", "id": "54dc4ee6-ad3d-3a4a-9355-329d90de799c", "coordinates": {"lat": 47.4073, "lon": -70.24}}, {"name": "Brickyard", "id": "c367c8c3-7a06-3d6f-9dae-e77e6c5f4f7d", "coordinates": {"lat": 46.5498, "lon": -72.1343}}, {"name": "Punchbowl", "id": "2f611c87-6dc2-3ce2-b5ef-b4dffbbbcb1f", "coordinates": {"lat": 53.25, "lon": -55.7667}}, {"name": "Champlain", "id": "a8a1e542-fbff-3c34-b272-185ba1c064f1", "coordinates": {"lat": 46.4402, "lon": -72.3397}}, {"name": "Denman Island", "id": "de8fbd21-3759-3d33-8cfc-e77567839dee", "coordinates": {"lat": 49.5341, "lon": -124.8222}}, {"name": "Prince Rupert RoRo", "id": "67d57c61-c472-3a9f-8a65-784035dc6790", "coordinates": {"lat": 54.2348, "lon": -130.3348}}, {"name": "Parkers Cove", "id": "106ea833-5532-31d4-968e-2bcdff7f4bb6", "coordinates": {"lat": 44.8, "lon": -65.5333}}, {"name": "Cutler", "id": "c8b9136c-a569-3ea5-a241-a235f6b569f3", "coordinates": {"lat": 44.65, "lon": -67.2167}}, {"name": "Whitehead", "id": "1a1ddf0c-13a7-3de0-8b07-d736df64add3", "coordinates": {"lat": 45.2333, "lon": -61.1833}}, {"name": "Village Bay", "id": "03e054d7-6fd8-370e-8471-d91d6b010f29", "coordinates": {"lat": 48.8467, "lon": -123.325}}, {"name": "Sullivan Bay", "id": "800ca365-03a8-3f92-a2e4-fdb266e4ec03", "coordinates": {"lat": 50.886, "lon": -126.826}}, {"name": "Mould Bay", "id": "30900d3c-5bce-3804-bb45-bebd9a596590", "coordinates": {"lat": 76.2833, "lon": -119.4667}}, {"name": "Northumberland Sound", "id": "5a49e3df-a221-3ba5-a0a1-0ca467902f91", "coordinates": {"lat": 76.8667, "lon": -96.7}}, {"name": "Shingle Point", "id": "590f002b-8394-3e30-a194-6a8acedb8361", "coordinates": {"lat": 68.9333, "lon": -137.2}}, {"name": "Natashquan", "id": "ea37c510-3cb1-3001-8731-ee2008debfd3", "coordinates": {"lat": 50.1892, "lon": -61.8415}}, {"name": "Iqaluit", "id": "049cba8f-0363-3cc7-9e1b-be9325fbbc6d", "coordinates": {"lat": 63.7127, "lon": -68.5025}}, {"name": "Forestville", "id": "cca07086-9602-327c-a818-e8511154bd74", "coordinates": {"lat": 48.7383, "lon": -69.0522}}, {"name": "Belle Cote Breakwater", "id": "ff7753f0-6094-38f7-a701-b2352a6c2b65", "coordinates": {"lat": 46.4333, "lon": -61.0833}}, {"name": "Naujaat", "id": "97b43e94-2d67-3e46-ab10-977c5d62cfd7", "coordinates": {"lat": 66.5267, "lon": -86.2583}}, {"name": "Point Prim", "id": "4b6d3aa0-4c65-3230-88f4-b2542d045c16", "coordinates": {"lat": 46.05, "lon": -63.0333}}, {"name": "Kangiqsujuaq", "id": "dec1d1a6-8d47-3861-b9ee-918def91a185", "coordinates": {"lat": 61.595, "lon": -72.25}}, {"name": "Neuville *", "id": "336e5e75-c593-37b0-b895-1e1489a51a8f", "coordinates": {"lat": 46.6965, "lon": -71.5728}}, {"name": "West Newdy Quoddy", "id": "c6965491-2b38-3187-a4f4-955f77f912e5", "coordinates": {"lat": 44.9, "lon": -62.3167}}, {"name": "Savage Harbour", "id": "19e9aad3-b6f8-3174-ae15-536890c5bf0a", "coordinates": {"lat": 46.4333, "lon": -62.85}}, {"name": "Arctic Bay", "id": "8cd9b1f7-f62a-3646-b863-4287f5c54e77", "coordinates": {"lat": 73.0333, "lon": -85.1667}}, {"name": "Winter Harbour", "id": "d197f1a6-2d67-34f2-9c12-ee59b722df80", "coordinates": {"lat": 74.7833, "lon": -110.8}}, {"name": "Berthier-sur-Mer", "id": "c882b658-7889-312e-8d98-bef9e0f1c049", "coordinates": {"lat": 46.9362, "lon": -70.7373}}, {"name": "Higgings Passage", "id": "4292a598-b1ac-36f7-b789-3316f9604a84", "coordinates": {"lat": 52.4833, "lon": -128.75}}, {"name": "Garnet Point", "id": "cec968f8-12ae-3d83-82ea-591ebb583575", "coordinates": {"lat": 44.9167, "lon": -67.1167}}, {"name": "Sooke", "id": "f8faf960-6b29-390b-a9e5-b9c44cd2faa7", "coordinates": {"lat": 48.3696, "lon": -123.726}}, {"name": "Cormoran", "id": "5cc4bd25-c838-34ea-b6fe-02e94e149e13", "coordinates": {"lat": 47.1167, "lon": -65.15}}, {"name": "Nanaimo", "id": "f70bed4e-5b1b-3bb5-9b3a-aa8045457006", "coordinates": {"lat": 49.1667, "lon": -123.9333}}, {"name": "Nain *", "id": "93b51541-3764-37cb-845b-c6b925d58832", "coordinates": {"lat": 56.5333, "lon": -61.6833}}, {"name": "Saint-Joseph-de-la-Rive *", "id": "576db48d-e3ae-3f15-9a16-27d617674a72", "coordinates": {"lat": 47.4488, "lon": -70.3655}}, {"name": "Portneuf *", "id": "3863169c-9bbc-30e6-94b1-a56d4081c9de", "coordinates": {"lat": 46.6812, "lon": -71.8771}}, {"name": "Island NE of M'Clintock Point", "id": "d6159ba8-0778-33bf-af02-c0c9a87c0d84", "coordinates": {"lat": 69.3485, "lon": -99.8635}}, {"name": "Imigen Island", "id": "57728cb9-3038-364e-ba42-717fdc07a022", "coordinates": {"lat": 66.0167, "lon": -67.15}}, {"name": "Port Dufferin", "id": "6862f9c3-659d-323f-9739-d1373a7b5775", "coordinates": {"lat": 44.9, "lon": -62.3667}}, {"name": "Beacon Isle Ungava", "id": "38903c9b-83fe-3ba6-a3e0-1a07bbb74841", "coordinates": {"lat": 58.8933, "lon": -66.345}}, {"name": "Ile aux Grues", "id": "0a779be2-56df-3d96-bd89-9c95bf9d229b", "coordinates": {"lat": 47.05, "lon": -70.5333}}, {"name": "Davis Inlet", "id": "31bda8ec-048b-335c-ae1d-f3944747d195", "coordinates": {"lat": 55.8833, "lon": -60.9}}, {"name": "Herbert Inlet", "id": "93fab214-0ed8-3728-a483-4bd428998a9d", "coordinates": {"lat": 49.3463, "lon": -125.984}}, {"name": "Beauchemin Channel", "id": "47725625-9b01-3ce5-ad6e-b54f2ab27316", "coordinates": {"lat": 52.7813, "lon": -129.2987}}, {"name": "Beachside", "id": "892be9a7-06ee-3d6b-a962-0354f4ee45cd", "coordinates": {"lat": 49.6333, "lon": -55.8833}}, {"name": "Mill Cove", "id": "c2650928-a3b0-34a1-9d3f-9b6b85e935fb", "coordinates": {"lat": 44.5833, "lon": -64.0667}}, {"name": "Newport", "id": "db327100-c4fc-3d98-850f-322be9510dd0", "coordinates": {"lat": 48.2843, "lon": -64.7193}}, {"name": "Darrell Bay", "id": "5d4a8e98-c973-314e-8477-cd7011147257", "coordinates": {"lat": 49.6685, "lon": -123.1689}}, {"name": "Port Renfrew", "id": "19a72c7f-b69f-345e-83ed-f92d46a9f548", "coordinates": {"lat": 48.5551, "lon": -124.4208}}, {"name": "Richibucto", "id": "60163736-afe4-3699-90df-dced2a457c0c", "coordinates": {"lat": 46.6833, "lon": -64.8667}}, {"name": "Whaler Point", "id": "c2cede0f-c463-376a-a182-9564872d8051", "coordinates": {"lat": 73.8167, "lon": -90.2833}}, {"name": "Grise Fiord", "id": "7a6d6602-0bb7-3b46-9866-21b13dd13c42", "coordinates": {"lat": 76.4167, "lon": -83.0833}}, {"name": "La Scie", "id": "9759e160-67ad-36ee-abd2-bf7576a5b2a3", "coordinates": {"lat": 49.9632, "lon": -55.603}}, {"name": "Bellot Strait East", "id": "ae625472-5f94-35e4-89bf-caa20912dcad", "coordinates": {"lat": 72.0167, "lon": -94.3333}}, {"name": "Cape Felix", "id": "ea4d01a8-d7b8-39c8-9d69-74a91178e18d", "coordinates": {"lat": 69.938, "lon": -97.9035}}, {"name": "Tofino *", "id": "b15e5059-d18c-333c-9061-fcccc5b6aaa0", "coordinates": {"lat": 49.1537, "lon": -125.913}}, {"name": "St. Andrews", "id": "d33a657a-4fe2-3743-bfa2-f0938ca80811", "coordinates": {"lat": 45.0667, "lon": -67.05}}, {"name": "Margaree Trailer", "id": "850c9c85-e175-3721-92e3-ff076bd0bf3f", "coordinates": {"lat": 46.4333, "lon": -61.1167}}, {"name": "Gillen Harbour", "id": "6449e259-bdc8-3633-812e-bd459017e1b2", "coordinates": {"lat": 52.9643, "lon": -129.6055}}, {"name": "Hantsport", "id": "b473bbf6-8d60-3611-9986-4d69c22ba0d6", "coordinates": {"lat": 45.0667, "lon": -64.1667}}, {"name": "Carmanville", "id": "1068a322-3f45-3487-9df5-506158b4949e", "coordinates": {"lat": 49.4, "lon": -54.2833}}, {"name": "Bedford Institute *", "id": "b2b570bb-dd10-315a-bf99-b3faf2dfa17a", "coordinates": {"lat": 44.6833, "lon": -63.6167}}, {"name": "Liscomb Harbour", "id": "805f79ca-117a-3432-b9fc-e77feaeed689", "coordinates": {"lat": 45.0167, "lon": -62.0}}, {"name": "Port Bickerton", "id": "800e5c40-7e56-3ad9-b2f4-97655a04d039", "coordinates": {"lat": 45.1, "lon": -61.7333}}, {"name": "Little Cornwallis Island", "id": "4e2d0a53-479d-331f-8602-1e2486e33fa2", "coordinates": {"lat": 75.3833, "lon": -96.95}}, {"name": "Jenny Lind Island", "id": "728851dc-53dc-3e29-87db-7f85f6875031", "coordinates": {"lat": 68.6533, "lon": -101.7567}}, {"name": "Come By Chance", "id": "617d6d4b-7bcc-3bf1-91c3-dacc628d8f42", "coordinates": {"lat": 47.8167, "lon": -54.0167}}, {"name": "Pointe-au-Platon", "id": "c38e08b1-6daa-3ab3-8e00-5691996df2bd", "coordinates": {"lat": 46.6708, "lon": -71.846}}, {"name": "Grande-Vall\u00e9e", "id": "8e11430d-bec2-34ad-833b-7b4c2cb763c3", "coordinates": {"lat": 49.2333, "lon": -65.1333}}, {"name": "Fredericton", "id": "fd3bd7dc-ce15-38dd-94a4-377b6b4d6d3d", "coordinates": {"lat": 45.9667, "lon": -66.65}}, {"name": "Murphy Cove", "id": "0c9475b1-5abd-3515-a6bd-2579defe5ca6", "coordinates": {"lat": 44.7833, "lon": -62.75}}, {"name": "Ulukhaktok", "id": "7feda220-5a72-31a4-b790-7f0314f44c41", "coordinates": {"lat": 70.7333, "lon": -117.75}}, {"name": "Saint-Jean (I.O.)", "id": "af1b0c5f-e7b0-3b37-8be9-a9ad3338f8d4", "coordinates": {"lat": 46.9167, "lon": -70.9}}, {"name": "Sambro Harbour", "id": "f89c262c-e4f9-30c0-820d-eaba41d439fa", "coordinates": {"lat": 44.4833, "lon": -63.6}}, {"name": "Sooke Basin", "id": "d23e9dbf-6b87-3b79-a0a9-b12f3b28322f", "coordinates": {"lat": 48.372, "lon": -123.6823}}, {"name": "Sherbrooke", "id": "3e16ee74-6da4-34fd-b073-ba9f522c5501", "coordinates": {"lat": 45.1333, "lon": -61.9833}}, {"name": "Port Hardy *", "id": "014e8164-76e3-3f03-b6b5-b24475d586fe", "coordinates": {"lat": 50.7224, "lon": -127.489}}, {"name": "Lighthouse Cove", "id": "fcdbea36-a445-37af-a805-c87ef2f4e590", "coordinates": {"lat": 46.2, "lon": -60.25}}, {"name": "Steveston", "id": "1929f4c2-5da9-3d9b-ae73-63289eed80fd", "coordinates": {"lat": 49.1238, "lon": -123.1869}}, {"name": "Pont de Quebec", "id": "c7677064-3d3b-3663-b2e3-8eeb6389f8c5", "coordinates": {"lat": 46.8325, "lon": -71.1578}}, {"name": "Richibucto Bar", "id": "530ea238-7577-3877-a602-5827e75f918b", "coordinates": {"lat": 46.7167, "lon": -64.7833}}, {"name": "Wilsons Beach", "id": "58f86034-e53b-3913-ae55-34f3101647ea", "coordinates": {"lat": 44.9333, "lon": -66.9333}}, {"name": "Lockeport", "id": "08bef08a-3973-3ff4-b157-a9f029f1d3e9", "coordinates": {"lat": 43.7, "lon": -65.1167}}, {"name": "Marble Island", "id": "ce2fbaae-2dd7-3ab5-a899-a1d8bbb117f9", "coordinates": {"lat": 62.6833, "lon": -91.2}}, {"name": "Hopedale", "id": "a54d14df-e07f-34d8-aefc-ff9a285e24e9", "coordinates": {"lat": 55.45, "lon": -60.2167}}, {"name": "North Lubec", "id": "bd5c60a5-5003-3666-bf0d-14a6efa7d85f", "coordinates": {"lat": 44.8667, "lon": -66.9833}}, {"name": "Nanoose Bay", "id": "0a0c53ae-aca7-3d4f-afbe-6133394a16ea", "coordinates": {"lat": 49.2649, "lon": -124.1381}}, {"name": "Black Rock Point", "id": "0f3b7836-19bb-322b-8273-068269ce1917", "coordinates": {"lat": 46.3, "lon": -60.4}}, {"name": "Clarenville", "id": "fbcddbaf-3365-3c3f-8df6-8142b224e0b2", "coordinates": {"lat": 48.1667, "lon": -53.9667}}, {"name": "Kimmirut", "id": "cb146eeb-7732-3d6e-993b-e6336cf24190", "coordinates": {"lat": 62.85, "lon": -69.8833}}, {"name": "Williams Harbour", "id": "4b03bd33-c5b6-3769-a38f-461e6442330e", "coordinates": {"lat": 60.0, "lon": -64.2667}}, {"name": "Cape Barclay", "id": "568c0f24-db94-37cc-933b-8b9b29480f0d", "coordinates": {"lat": 68.2333, "lon": -88.1333}}, {"name": "Bedwell Harbour", "id": "73a3bbee-c417-3c54-8ec2-47fd77fbd040", "coordinates": {"lat": 48.7481, "lon": -123.2281}}, {"name": "Tadoussac", "id": "8422ff63-0bba-34d3-b790-51d0ce829991", "coordinates": {"lat": 48.1383, "lon": -69.714}}, {"name": "Port McNeill", "id": "e6ec4d95-5cd8-39c2-a564-f0b6f5a9587a", "coordinates": {"lat": 50.5931, "lon": -127.0935}}, {"name": "Cocagne Harbour", "id": "bd001b85-ab43-3426-af3e-319920714491", "coordinates": {"lat": 46.3333, "lon": -64.6167}}, {"name": "Baie Chevalier", "id": "90132603-0d70-33e9-b495-c149926461a1", "coordinates": {"lat": 51.4325, "lon": -57.6385}}, {"name": "Quai Irving", "id": "1a00f868-2e92-3127-996a-87abc61b85ca", "coordinates": {"lat": 46.755, "lon": -71.2715}}, {"name": "Arviat (Eskimo Point)", "id": "68443a5a-42da-3255-9c3f-ec8c26678142", "coordinates": {"lat": 61.15, "lon": -94.0167}}, {"name": "Greely Fiord", "id": "c25292d8-be8c-3e0b-b8cf-c916b9134eed", "coordinates": {"lat": 80.6, "lon": -79.5833}}, {"name": "Port Maitland", "id": "aec4c08f-be81-3cbe-9ca3-b71f746eb43c", "coordinates": {"lat": 43.9833, "lon": -66.15}}, {"name": "Lowe Inlet", "id": "dff50788-95c7-3ac7-810e-1e2cf492b9cc", "coordinates": {"lat": 53.5523, "lon": -129.5762}}, {"name": "Queen Charlotte *", "id": "bc16f9e4-98bb-3c07-9222-1238a4424f2c", "coordinates": {"lat": 53.252, "lon": -132.0717}}, {"name": "Tiverton, South Entrance", "id": "8033f335-f3ce-37d9-b4b8-97b3e38f9719", "coordinates": {"lat": 44.3833, "lon": -66.2167}}, {"name": "Saint-Joachim", "id": "11b882bf-f284-3da3-b923-2fad321b03bd", "coordinates": {"lat": 47.0435, "lon": -70.8447}}, {"name": "Cape Dyer", "id": "9deccd79-9b34-394a-9854-7e49ec022d71", "coordinates": {"lat": 66.55, "lon": -61.6667}}, {"name": "Twillingate", "id": "9a5267b0-754d-3afd-9e41-e993936d0fe2", "coordinates": {"lat": 49.65, "lon": -54.7667}}, {"name": "Kangiqsualujjuaq", "id": "666a5be1-9e71-3c5d-a559-9120ee9ee14b", "coordinates": {"lat": 58.6833, "lon": -65.95}}, {"name": "Liverpool", "id": "fbb832af-8127-35c4-8bf4-a2b940248eda", "coordinates": {"lat": 44.05, "lon": -64.7167}}, {"name": "Blubber Bay", "id": "64a91629-5567-3642-9ad7-ff32cba00f63", "coordinates": {"lat": 49.7932, "lon": -124.6205}}, {"name": "Namu", "id": "fbef4916-0a66-3856-b6e5-9fa406232fb9", "coordinates": {"lat": 51.8614, "lon": -127.8662}},